stop_id,stop_code,stop_name,stop_desc,stop_lat,stop_lon,zone_id,stop_url,location_type
AA010,8767,"SUSSEX / CHUTE RIDEAU FALLS",,45.439869,-75.695839,,,0
AA020,6859,"SUSSEX / CHUTE RIDEAU FALLS",,45.439571,-75.695694,,,0
AA030,7001,"SUSSEX / ALEXANDER",,45.44286,-75.693565,,,0
AA035,8762,"ALEXANDER / THOMAS",,45.442795,-75.692322,,,0
AA040,7000,"JOHN / SUSSEX",,45.442554,-75.693504,,,0
AA050,7002,"ALEXANDER / CHARLES",,45.442532,-75.691505,,,0
AA060,8766,"CRICHTON / CHARLES",,45.442223,-75.691216,,,0
AA070,7003,"CRICHTON / UNION",,45.441673,-75.689964,,,0
AA080,7005,"CRICHTON / UNION",,45.441708,-75.689529,,,0
AA090,7004,"CRICHTON / VICTORIA",,45.441139,-75.688271,,,0
AA100,7006,"CRICHTON / VICTORIA",,45.441162,-75.687935,,,0
AA110,7007,"CRICHTON / KEEFER",,45.440731,-75.686615,,,0
AA120,8763,"CRICHTON / KEEFER",,45.440338,-75.685699,,,0
AA130,7008,"CRICHTON / DUFFERIN",,45.439579,-75.682983,,,0
AA140,8765,"CRICHTON / THE MEWS",,45.43964,-75.68264,,,0
AA150,7010,"CRICHTON / ELECTRIC",,45.439083,-75.679955,,,0
AA160,7009,"CRICHTON / ELECTRIC",,45.438885,-75.679878,,,0
AA170,8764,"CRICHTON / BEECHWOOD",,45.438602,-75.678429,,,0
AA180,7011,"CRICHTON / BEECHWOOD",,45.438755,-75.678513,,,0
AA190,8792,"BEECHWOOD / CRICHTON",,45.438652,-75.67762,,,0
AA200,8793,"BEECHWOOD / CHARLEVOIX",,45.438988,-75.677078,,,0
AA210,8922,"BEECHWOOD / MACKAY",,45.439556,-75.676849,,,0
AA220,8794,"BEECHWOOD / LOYER",,45.440006,-75.675697,,,0
AA230,8795,"BEECHWOOD / ST CHARLES",,45.441257,-75.673248,,,0
AA240,8790,"BEECHWOOD / ST CHARLES",,45.441147,-75.674057,,,0
AA251,1649,"BEECHWOOD / MARIER",,45.442188,-75.671356,,,0
AA260,7015,"BEECHWOOD / ACACIA",,45.442188,-75.671562,,,0
AA270,7013,"BEECHWOOD / MARQUETTE",,45.443604,-75.670425,,,0
AA280,8797,"BEECHWOOD / CORONA",,45.444061,-75.670532,,,0
AA290,7014,"BEECHWOOD / CORONA",,45.444645,-75.670105,,,0
AA300,7016,"BEECHWOOD / JULIANA",,45.445854,-75.669502,,,0
AA310,8796,"BEECHWOOD / JULIANA",,45.445889,-75.669182,,,0
AA320,7017,"HEMLOCK / LANSDOWNE",,45.447628,-75.668449,,,0
AA325,7018,"HEMLOCK / WHITEMARL",,45.448833,-75.665802,,,0
AA330,7019,"HEMLOCK / LANSDOWNE",,45.44759,-75.668083,,,0
AA335,7020,"HEMLOCK / WHITEMARL",,45.448765,-75.665031,,,0
AA340,8788,"SPRINGFIELD / BEECHWOOD",,45.440071,-75.676292,,,0
AA350,7021,"SPRINGFIELD / PUTMAN",,45.441841,-75.676804,,,0
AA360,7022,"SPRINGFIELD / RIDEAU",,45.443668,-75.677185,,,0
AA370,7023,"SPRINGFIELD / LINDENLEA",,45.444904,-75.677437,,,0
AA380,8789,"MAPLE LANE / SPRINGFIELD",,45.44632,-75.677597,,,0
AA390,7024,"MAPLE LANE / ELMDALE",,45.446541,-75.674881,,,0
AA400,7025,"MAPLE LANE / ACACIA",,45.446701,-75.673134,,,0
AA410,7026,"ACACIA / RIDEAU TERRACE",,45.444561,-75.672432,,,0
AB060,1650,"MARIER / BEECHWOOD",,45.441963,-75.671501,,,0
AB065,7263,"MARIER / BARRETTE",,45.441906,-75.670959,,,0
AB070,7029,"MARIER / GENEST",,45.441189,-75.66906,,,0
AB075,7264,"MARIER / GENEST",,45.441048,-75.669083,,,0
AB100,8752,"DES PÈRES BLANCS / MARIER",,45.440041,-75.66571,,,0
AB110,8995,"DES PÈRES BLANCS / MARIER",,45.440163,-75.665367,,,0
AB120,7034,"DES PÈRES BLANCS / MARQUETTE",,45.440853,-75.664574,,,0
AB130,7035,"DES PÈRES BLANCS / LONGPRÉ",,45.440781,-75.664528,,,0
AB185,839,"DES PÈRES BLANCS / LEBRUN",,45.442703,-75.661797,,,0
AB195,1890,"DES PÈRES BLANCS / LEBRUN",,45.442322,-75.662582,,,0
AB200,7040,"DES PÈRES BLANCS / AD. 300",,45.444321,-75.660179,,,0
AB290,1545,"GRANVILLE / MONTRÉAL",,45.43819,-75.656242,,,0
AB300,8749,"ALFRED / MONTRÉAL",,45.43885,-75.654579,,,0
AB310,7046,"MONTFORT / ALFRED",,45.439438,-75.656059,,,0
AB320,1544,"MONTFORT / GRANVILLE",,45.43911,-75.656685,,,0
AB330,8745,"MONTFORT / STE ANNE",,45.43911,-75.658913,,,0
AB340,8747,"MONTFORT / STE ANNE",,45.438931,-75.659218,,,0
AB350,7049,"MONTFORT / BRADLEY",,45.438835,-75.660973,,,0
AB360,7047,"MONTFORT / PARK",,45.438904,-75.661392,,,0
AB370,7048,"MONTFORT / MARIER",,45.438797,-75.66301,,,0
AB380,7050,"MARIER / MONTFORT",,45.438873,-75.663399,,,0
AB450,8944,"VANIER / PATHWAY",,45.437725,-75.674026,,,0
AB455,1398,"VANIER / PATHWAY",,45.437473,-75.673851,,,0
AB456,6579,"VANIER / MEILLEUR",,45.437305,-75.671524,,,0
AB458,6580,"VANIER / MEILLEUR",,45.437145,-75.671593,,,0
AB460,7051,"VANIER / DESCHAMPS",,45.436554,-75.669052,,,0
AB470,8775,"VANIER / DESCHAMPS",,45.436077,-75.668594,,,0
AB480,7052,"VANIER / MONTRÉAL",,45.435078,-75.66642,,,0
AB490,8781,"MONTRÉAL / NORTH RIVER",,45.433006,-75.66983,,,0
AB500,1575,"MONTRÉAL / MONTGOMERY",,45.433224,-75.668663,,,0
AB510,8783,"MONTRÉAL / VANIER",,45.434216,-75.666588,,,0
AB520,7053,"MONTRÉAL / VANIER",,45.434212,-75.666153,,,0
AB530,8947,"MONTRÉAL / EMOND",,45.435215,-75.664146,,,0
AB540,7054,"MONTRÉAL / CYR",,45.435043,-75.663971,,,0
AB550,8784,"MONTRÉAL / OLMSTEAD",,45.435905,-75.662399,,,0
AB560,8758,"MONTRÉAL / OLMSTEAD",,45.435589,-75.662582,,,0
AB570,7055,"MONTRÉAL / MARIER",,45.436504,-75.660843,,,0
AB580,7057,"MONTRÉAL / BEGIN",,45.436306,-75.660728,,,0
AB600,7058,"MONTRÉAL / LACASSE",,45.437252,-75.658211,,,0
AB611,1279,"MONTRÉAL / BRADLEY",,45.437313,-75.658615,,,0
AB620,7059,"MONTRÉAL / LAFONTAINE",,45.437832,-75.656555,,,0
AB630,1543,"MONTRÉAL / GRANVILLE",,45.438267,-75.655853,,,0
AB640,929,"MONTRÉAL / DUCHARME",,45.438648,-75.653984,,,0
AB650,8741,"MONTRÉAL / CANTIN",,45.439041,-75.653275,,,0
AB660,8740,"MONTRÉAL / DE L'ÉGLISE",,45.439583,-75.65126,,,0
AB670,8739,"MONTRÉAL / DE L'EGLISE",,45.439667,-75.651398,,,0
AB680,7060,"MONTRÉAL / NOTRE DAME CEMETERY",,45.440189,-75.649269,,,0
AB690,927,"MONTRÉAL / NOTRE DAME CEMETERY",,45.4403,-75.649681,,,0
AB700,953,"MONTRÉAL / ST LAURENT",,45.440903,-75.647102,,,0
AC010,8723,"MCARTHUR / VANIER",,45.431255,-75.662941,,,0
AC020,8773,"MCARTHUR / VANIER",,45.431049,-75.663109,,,0
AC030,7061,"MCARTHUR / OLMSTEAD",,45.431229,-75.660637,,,0
AC035,8774,"MCARTHUR / OLMSTEAD",,45.431431,-75.660027,,,0
AC040,7062,"MCARTHUR / CRETE",,45.431583,-75.6586,,,0
AC050,8932,"MCARTHUR / ALLEN",,45.431458,-75.657265,,,0
AC060,7063,"MCARTHUR / LACASSE",,45.431705,-75.656784,,,0
AC070,5826,"MCARTHUR / CARMEN",,45.431599,-75.655647,,,0
AC080,8615,"MCARTHUR / LAFONTAINE",,45.431801,-75.654915,,,0
AC090,7064,"MCARTHUR / LAFONTAINE",,45.431667,-75.654266,,,0
AC100,7065,"MCARTHUR / EASTWOOD",,45.431957,-75.653038,,,0
AC110,8600,"MCARTHUR / IRWIN MILLER",,45.431808,-75.652428,,,0
AC120,7066,"MCARTHUR / BRANT",,45.432087,-75.650055,,,0
AC130,7067,"MCARTHUR / BRANT",,45.43198,-75.65007,,,0
AC140,8605,"MCARTHUR / DE L'ÉGLISE",,45.432255,-75.648102,,,0
AC150,8662,"MCARTHUR / MOORVALE",,45.432095,-75.648407,,,0
AC160,7068,"MCARTHUR / MAY",,45.432465,-75.644966,,,0
AC170,8601,"MCARTHUR / MAY",,45.432262,-75.64566,,,0
AC180,7069,"MCARTHUR / ST LAURENT",,45.432602,-75.643188,,,0
AC190,7070,"MCARTHUR / ST LAURENT",,45.432461,-75.643486,,,0
AD010,7080,"VANIER / COVENTRY",,45.420925,-75.658073,,,0
AD020,7081,"VANIER / COVENTRY",,45.421806,-75.659142,,,0
AD030,8175,"VANIER / PRESLAND",,45.422798,-75.661606,,,0
AD040,8174,"VANIER / PRESLAND",,45.422421,-75.660515,,,0
AD050,7082,"VANIER / QUEEN MARY",,45.42461,-75.662437,,,0
AD060,7084,"VANIER / QUEEN MARY",,45.424229,-75.662018,,,0
AD070,7083,"VANIER / DONALD",,45.426937,-75.662964,,,0
AD080,8517,"VANIER / DONALD",,45.427692,-75.662712,,,0
AD085,5700,"VANIER / MCARTHUR",,45.430447,-75.664024,,,0
AD090,8770,"VANIER / MCARTHUR",,45.431686,-75.664009,,,0
AD100,8945,"VANIER / MCARTHUR",,45.431705,-75.664352,,,0
AD110,7085,"VANIER / MONTRÉAL",,45.433987,-75.665749,,,0
AD135,1995,"MCARTHUR / NORTH RIVER",,45.430698,-75.667999,,,0
AD140,8777,"MCARTHUR / MAYFIELD",,45.43108,-75.665703,,,0
AD145,7086,"MCARTHUR / MAYFIELD",,45.430862,-75.66568,,,0
AD200,8780,"NORTH RIVER / MONTRÉAL",,45.432442,-75.669975,,,0
AD210,8786,"NORTH RIVER / SELKIRK",,45.431995,-75.669472,,,0
AD220,7087,"NORTH RIVER / AD. 333",,45.431278,-75.669434,,,0
AD230,7088,"NORTH RIVER / MCARTHUR",,45.431221,-75.66909,,,0
AD260,8772,"NORTH RIVER / WASHINGTON",,45.429462,-75.668488,,,0
AD265,8768,"NORTH RIVER / WASHINGTON",,45.429287,-75.668198,,,0
AD270,7090,"NORTH RIVER / ONTARIO",,45.427952,-75.667549,,,0
AD280,7089,"NORTH RIVER / ONTARIO",,45.427891,-75.66774,,,0
AD300,1897,"NORTH RIVER / COLUMBUS",,45.426281,-75.666946,,,0
AD310,8581,"NORTH RIVER / COLUMBUS",,45.426144,-75.66671,,,0
AD320,7092,"QUEEN MARY / NORTH RIVER",,45.424282,-75.665634,,,0
AD330,7328,"QUEEN MARY / NORTH RIVER",,45.424156,-75.665344,,,0
AD340,7091,"QUEEN MARY / MARION",,45.424255,-75.664192,,,0
AD350,7093,"QUEEN MARY / MARION",,45.424442,-75.663895,,,0
AD360,8580,"QUEEN MARY / VANIER",,45.424545,-75.661964,,,0
AD370,8576,"QUEEN MARY / VANIER",,45.424435,-75.661713,,,0
AD380,7097,"QUEEN MARY / VERA",,45.424522,-75.660316,,,0
AD390,7094,"QUEEN MARY / VERA",,45.424709,-75.659889,,,0
AD400,7095,"QUILL / QUEEN MARY",,45.424908,-75.657486,,,0
AD410,7098,"QUILL / QUEEN MARY",,45.425186,-75.657341,,,0
AD420,7096,"QUILL / GLYNN",,45.425835,-75.657585,,,0
AD430,7099,"QUILL / COLUMBUS",,45.426304,-75.657501,,,0
AD440,8577,"DONALD / QUILL",,45.427608,-75.657387,,,0
AD450,8579,"DONALD / QUILL",,45.427769,-75.657166,,,0
AD460,7100,"DONALD / EDITH",,45.427746,-75.655426,,,0
AD470,7103,"DONALD / EVE",,45.427948,-75.654922,,,0
AD508,3578,"DONALD / TELFORD",,45.42852,-75.646927,,,0
AD509,1074,"DONALD / FRANCES",,45.428356,-75.646973,,,0
AD645,7404,"LOLA / DONALD",,45.427662,-75.652817,,,0
AD646,1517,"LOLA / DONALD",,45.427723,-75.652626,,,0
AD655,7267,"LOLA / KING GEORGE",,45.425503,-75.652504,,,0
AD660,7114,"LOLA / QUEEN MARY",,45.42503,-75.652267,,,0
AD670,7113,"LOLA / PRESLAND",,45.423328,-75.651733,,,0
AD680,7115,"LOLA / PRESLAND",,45.423378,-75.651566,,,0
AD690,8589,"LOLA / COVENTRY",,45.421989,-75.650963,,,0
AD700,7116,"LOLA / COVENTRY",,45.421986,-75.650696,,,0
AE040,1836,"TREMBLAY / BELFAST",,45.418716,-75.646454,,,0
AE050,1837,"TREMBLAY / AVENUE K",,45.41848,-75.648392,,,0
AE060,1849,"TREMBLAY / AVENUE P",,45.418739,-75.644409,,,0
AE080,7124,"TREMBLAY / AVENUE R",,45.419033,-75.642181,,,0
AE090,7126,"TREMBLAY / AVENUE R",,45.418877,-75.64254,,,0
AE120,1574,"TREMBLAY / AVENUE U",,45.419235,-75.639107,,,0
AE130,7127,"TREMBLAY / AVENUE U",,45.419128,-75.639122,,,0
AE140,7129,"TREMBLAY / AD. 529",,45.419106,-75.636261,,,0
AE150,7128,"TREMBLAY / AD. 530",,45.418957,-75.636353,,,0
AE220,8595,"BELFAST / TRAINYARDS",,45.414597,-75.641899,,,0
AE241,8585,"TRAINYARDS / BELFAST",,45.414387,-75.643318,,,0
AE260,8582,"BELFAST / AD. 805",,45.413677,-75.639305,,,0
AE320,8541,"INDUSTRIAL / ST LAURENT",,45.406631,-75.627716,,,0
AE325,7137,"831 INDUSTRIAL",,45.408077,-75.633209,,,0
AE330,8548,"INDUSTRIAL / ST LAURENT",,45.406143,-75.630547,,,0
AE335,8546,"INDUSTRIAL / NAPA AUTO PARTS AD. 830",,45.407219,-75.632545,,,0
AE340,7158,"INDUSTRIAL / RUSSELL",,45.408829,-75.634811,,,0
AE351,742,"INDUSTRIAL / RUSSELL",,45.409092,-75.635094,,,0
AE355,1188,"INDUSTRIAL / RUSSELL",,45.409946,-75.637604,,,0
AE360,1189,"INDUSTRIAL / RUSSELL",,45.409863,-75.637581,,,0
AE450,8629,"NEIGHBOURHOOD / CORONATION",,45.410252,-75.652763,,,0
AE480,1392,"ROLLAND / CORONATION",,45.409447,-75.65345,,,0
AE495,3641,"CORONATION / NEIGHBOURHOOD",,45.410282,-75.652412,,,0
AE500,8560,"CORONATION / AD. 466",,45.410694,-75.64975,,,0
AE510,8556,"CORONATION / AD. 466",,45.410561,-75.649857,,,0
AE520,8559,"CORONATION / CHOMLEY",,45.41061,-75.645767,,,0
AE530,7144,"CORONATION / CHOMLEY",,45.4105,-75.64637,,,0
AE540,7145,"CORONATION / WEYBURN",,45.410038,-75.642235,,,0
AE550,7146,"CORONATION / WEYBURN",,45.409866,-75.64225,,,0
AE560,8558,"CORONATION / BOTSFORD",,45.409153,-75.638573,,,0
AE570,8557,"CORONATION / BOTSFORD",,45.408936,-75.638382,,,0
AE580,7147,"CORONATION / RUSSELL",,45.408726,-75.636765,,,0
AE590,7150,"CORONATION / RUSSELL",,45.408489,-75.63636,,,0
AE600,7148,"RUSSELL / SHELLEY",,45.407547,-75.635506,,,0
AE610,7151,"RUSSELL / SHELLEY",,45.407303,-75.635483,,,0
AE620,7149,"RUSSELL / THIRSK",,45.406162,-75.634491,,,0
AE625,8354,"RUSSELL / PERLEY HOSPITAL",,45.404579,-75.633125,,,0
AE630,7163,"RUSSELL / THIRSK",,45.405991,-75.634544,,,0
AE635,7155,"RUSSELL / PERLEY HOSPITAL",,45.404446,-75.633263,,,0
AE640,8355,"RUSSELL / HAIG",,45.403683,-75.632469,,,0
AE650,7152,"RUSSELL / HAIG",,45.403381,-75.631966,,,0
AE660,7156,"RUSSELL / CUBA",,45.402153,-75.629005,,,0
AE670,7153,"RUSSELL / CUBA",,45.402176,-75.628647,,,0
AE680,7154,"RUSSELL / AD. 1909",,45.40173,-75.626419,,,0
AE690,7157,"RUSSELL / AD. 1909",,45.401577,-75.626526,,,0
AE700,3395,"TERMINAL / TRAINYARDS",,45.415009,-75.646324,,,0
AE705,3396,"TERMINAL / TRAINYARDS",,45.41518,-75.645378,,,0
AE710,3397,"TERMINAL / WALMART ENT.",,45.414768,-75.649345,,,0
AE715,3398,"TERMINAL / WALMART ENT.",,45.414936,-75.648972,,,0
AE721,1802,"TERMINAL / SANDFORD FLEMING",,45.414185,-75.656647,,,0
AE726,1801,"TERMINAL / SANDFORD FLEMING",,45.41433,-75.656677,,,0
AE800,7074,"INDUSTRIAL GARAGE / BELFAST",,45.412872,-75.638649,,,0
AE810,7073,"INDUSTRIAL GARAGE / BELFAST",,45.412876,-75.638763,,,0
AE815,1187,"TRAINYARD MALL / ROAD TO BELFAST",,45.41254,-75.639557,,,0
AE820,1186,"TRAINYARD MALL / ROAD TO BELFAST",,45.412716,-75.639763,,,0
AE900,3024,"TRAIN 2A",,45.417316,-75.652084,,,0
AE910,3024,"TRAIN 1A",,45.417156,-75.652046,,,0
AF075,1868,"RIVERSIDE / TERMINAL",,45.412331,-75.659019,,,0
AF080,1869,"RIVERSIDE / TERMINAL",,45.4123,-75.659683,,,0
AF090,5793,"SANDFORD FLEMING / INDUSTRIAL",,45.412605,-75.655853,,,0
AF100,8552,"SANDFORD FLEMING / INDUSTRIAL",,45.41288,-75.65567,,,0
AF105,8626,"ALTA VISTA / ROLLAND",,45.411263,-75.65593,,,0
AF110,8544,"ALTA VISTA / CALEDON",,45.410301,-75.657257,,,0
AF120,8209,"ALTA VISTA / CALEDON",,45.410149,-75.657158,,,0
AF130,7164,"ALTA VISTA / DALE",,45.408779,-75.658173,,,0
AF140,7165,"ALTA VISTA / DORION",,45.408257,-75.658211,,,0
AF150,8219,"ALTA VISTA / DORION",,45.407818,-75.658676,,,0
AF160,7166,"ALTA VISTA / CLUNY",,45.405445,-75.65995,,,0
AF170,7167,"ALTA VISTA / BALFOUR",,45.405045,-75.660439,,,0
AF180,8220,"ALTA VISTA / VALOUR",,45.402775,-75.661842,,,0
AF190,8208,"ALTA VISTA / VALOUR",,45.402821,-75.66156,,,0
AF210,7170,"ALTA VISTA / SMYTH",,45.399715,-75.661819,,,0
AF220,7168,"ALTA VISTA / SMYTH",,45.400898,-75.6623,,,0
AF230,7169,"ALTA VISTA / SMYTH",,45.399212,-75.661919,,,0
AF240,8234,"SMYTH / ALTA VISTA",,45.398586,-75.662041,,,0
AF270,2401,"SMYTH / RIVERSIDE",,45.399036,-75.667084,,,0
AF280,7171,"SMYTH / RIVERSIDE",,45.398937,-75.666954,,,0
AF910,3023,"HURDMAN 1B",,45.412018,-75.665443,,,0
AF920,3023,"HURDMAN 1C",,45.412048,-75.665001,,,0
AF930,3023,"HURDMAN 1D",,45.412064,-75.664474,,,0
AF940,3023,"HURDMAN 2A",,45.411896,-75.664787,,,0
AF950,3023,"HURDMAN 2B",,45.411819,-75.665421,,,0
AF960,3023,"HURDMAN 2C",,45.411816,-75.666092,,,0
AF965,3030,"LYCÉE CLAUDEL 1A",,45.406612,-75.664452,,,0
AF970,3030,"LYCÉE CLAUDEL 2A",,45.406548,-75.664223,,,0
AF975,3031,"SMYTH 1A",,45.401104,-75.666862,,,0
AF980,3031,"SMYTH 2A",,45.401146,-75.66655,,,0
AG040,8555,"RIVERSIDE / PLEASANT PARK",,45.393036,-75.672379,,,0
AG105,8216,"PLEASANT PARK / CABOT",,45.392769,-75.671684,,,0
AG120,2327,"PLEASANT PARK / CABOT",,45.39267,-75.671646,,,0
AG150,8240,"PLEASANT PARK / CAVENDISH",,45.392967,-75.665291,,,0
AG160,8242,"PLEASANT PARK / CAVENDISH",,45.392796,-75.665337,,,0
AG180,7173,"PLEASANT PARK / ALTA VISTA",,45.393009,-75.662788,,,0
AG190,8207,"ALTA VISTA / SMYTH",,45.39806,-75.661537,,,0
AG200,7174,"ALTA VISTA / CRESTVIEW",,45.396343,-75.662178,,,0
AG210,8228,"ALTA VISTA / CRESTVIEW",,45.395592,-75.662689,,,0
AG220,7175,"ALTA VISTA / BILLINGS",,45.394539,-75.662674,,,0
AG240,8206,"ALTA VISTA / PLEASANT PARK",,45.393425,-75.66259,,,0
AG250,7176,"ALTA VISTA / PLEASANT PARK",,45.393162,-75.662682,,,0
AG260,8227,"ALTA VISTA / MOUNTBATTEN",,45.391685,-75.662415,,,0
AG270,837,"ALTA VISTA / SUMMIT",,45.39135,-75.662125,,,0
AG280,7178,"ALTA VISTA / CUNNINGHAM",,45.389275,-75.662727,,,0
AG290,7177,"ALTA VISTA / CUNNINGHAM",,45.388668,-75.663086,,,0
AG300,5851,"ALTA VISTA / KILBORN",,45.386723,-75.662834,,,0
AG310,5705,"ALTA VISTA / KILBORN",,45.386494,-75.662567,,,0
AG320,8226,"ALTA VISTA / ORILLIA",,45.385235,-75.662598,,,0
AG330,5709,"ALTA VISTA / CLONTARF",,45.385071,-75.662422,,,0
AG340,7180,"ALTA VISTA / RANDALL",,45.383827,-75.662193,,,0
AG350,7179,"ALTA VISTA / RANDALL",,45.382874,-75.662209,,,0
AG360,8422,"ALTA VISTA / PALEN",,45.382042,-75.661804,,,0
AG370,8423,"ALTA VISTA / WESMAR",,45.381737,-75.661896,,,0
AG380,7181,"ALTA VISTA / WESMAR",,45.379852,-75.661438,,,0
AG390,8359,"ALTA VISTA / HERON",,45.378456,-75.661011,,,0
AG430,8425,"ALTA VISTA / RIDGEMONT",,45.377113,-75.660843,,,0
AG480,8231,"HERON / ALTA VISTA",,45.379028,-75.661911,,,0
AG500,7187,"HERON / EVANS",,45.378891,-75.664551,,,0
AG510,8427,"HERON/EDGEHILL",,45.378716,-75.664597,,,0
AG520,8286,"HERON / BANK",,45.378761,-75.66684,,,0
AG525,1166,"HERON / BANK",,45.378517,-75.666962,,,0
AG540,8225,"KILBORN / ALTA VISTA",,45.386543,-75.662949,,,0
AG550,7189,"KILBORN / LILAC",,45.386345,-75.665298,,,0
AG560,7188,"KILBORN / LILAC",,45.386471,-75.665443,,,0
AG570,8224,"KILBORN / BEAVER",,45.386189,-75.667488,,,0
AG580,8203,"KILBORN / BLOSSOM",,45.386204,-75.669533,,,0
AG590,7190,"KILBORN / UTAH",,45.386024,-75.669662,,,0
AG600,7192,"KILBORN / ROONEY'S LANE",,45.385124,-75.670883,,,0
AG610,7191,"KILBORN / ROONEY'S LANE",,45.384541,-75.670883,,,0
AG900,3032,"RIVERSIDE 2A",,45.396847,-75.669083,,,0
AG910,3032,"RIVERSIDE 1A",,45.396893,-75.669334,,,0
AG920,3033,"PLEASANT PARK 2A",,45.392715,-75.669228,,,0
AG930,3033,"PLEASANT PARK 1A",,45.392853,-75.669434,,,0
AG940,3033,"PLEASANT PARK 4A",,45.392776,-75.669113,,,0
AG950,3033,"PLEASANT PARK 3A",,45.392746,-75.669617,,,0
AH010,8384,"WALKLEY / BANK",,45.370575,-75.662659,,,0
AH020,8404,"WALKLEY / BANFF",,45.371189,-75.661499,,,0
AH030,7193,"WALKLEY / AYERS",,45.37167,-75.659813,,,0
AH040,7195,"WALKLEY / HAMPSTEAD",,45.371967,-75.659637,,,0
AH050,7194,"WALKLEY / HAMPSTEAD",,45.372379,-75.658073,,,0
AH060,7196,"WALKLEY / JASPER",,45.373055,-75.656891,,,0
AH090,8390,"WALKLEY / JASPER",,45.373138,-75.656342,,,0
AH095,7197,"ALBION / WALKLEY",,45.373737,-75.654701,,,0
AH110,8536,"WALKLEY / BAYCREST",,45.376366,-75.648521,,,0
AH115,7198,"WALKLEY / HEATHERINGTON",,45.377701,-75.645241,,,0
AH120,5818,"WALKLEY / AD. 1570",,45.376518,-75.648476,,,0
AH125,1087,"WALKLEY / HEATHERINGTON",,45.377819,-75.64537,,,0
AH130,8387,"WALKLEY / HEATHERINGTON",,45.378086,-75.644135,,,0
AH140,8399,"WALKLEY / AD. 1680",,45.378819,-75.642929,,,0
AH160,7201,"WALKLEY / HERON",,45.379303,-75.641556,,,0
AH170,7199,"WALKLEY / HERON",,45.379112,-75.641495,,,0
AH180,7202,"WALKLEY / HOLLY",,45.379929,-75.640015,,,0
AH190,7200,"WALKLEY / HOLLY",,45.379757,-75.639938,,,0
AH220,5806,"HEATHERINGTON / FAIRLEA",,45.377514,-75.644608,,,0
AH230,8400,"HEATHERINGTON / FAIRLEA",,45.376442,-75.64415,,,0
AH240,7203,"HEATHERINGTON / ANGELA",,45.375053,-75.643661,,,0
AH250,8386,"HEATHERINGTON / FAIRLEA",,45.375149,-75.643478,,,0
AH260,7204,"HEATHERINGTON / BANNERHILL",,45.373959,-75.644279,,,0
AH270,7205,"HEATHERINGTON / BANNERHILL",,45.373718,-75.644409,,,0
AH280,8401,"HEATHERINGTON / AD. 1560",,45.373077,-75.648109,,,0
AH290,8385,"HEATHERINGTON / AD. 1535",,45.37302,-75.648628,,,0
AH300,7206,"HEATHERINGTON / AD. 1476",,45.373363,-75.650208,,,0
AH310,7208,"HEATHERINGTON / AD. 1485",,45.373219,-75.650185,,,0
AH320,7207,"HEATHERINGTON / AD. 1455",,45.372826,-75.651733,,,0
AH330,7209,"HEATHERINGTON / AD. 1455",,45.372734,-75.651497,,,0
AH340,8402,"HEATHERINGTON / ALBION",,45.37228,-75.653122,,,0
AH350,7210,"HEATHERINGTON / ALBION",,45.372231,-75.652733,,,0
AH360,8403,"ALBION / WALKLEY",,45.373825,-75.654137,,,0
AH470,5899,"BAYCREST / HERON",,45.378998,-75.652733,,,0
AH480,1917,"BAYCREST / HERON",,45.37915,-75.652687,,,0
AH490,5880,"BAYCREST / CEDARWOOD",,45.377499,-75.650993,,,0
AH500,2394,"BAYCREST / CEDARWOOD",,45.377663,-75.651176,,,0
AH510,1924,"BAYCREST / WALKLEY",,45.376511,-75.649628,,,0
AI010,8937,"KILBORN / ALTA VISTA",,45.386711,-75.662537,,,0
AI030,8201,"KILBORN / BRAESIDE",,45.386875,-75.660469,,,0
AI040,8307,"KILBORN / BRAESIDE",,45.386723,-75.660316,,,0
AI050,7213,"KILBORN / WEBSTER",,45.387112,-75.657028,,,0
AI060,7211,"KILBORN / WEBSTER",,45.386955,-75.656982,,,0
AI070,8200,"KILBORN / PROSPECT",,45.387299,-75.65451,,,0
AI080,7212,"KILBORN / PROSPECT",,45.387112,-75.654808,,,0
AI090,7214,"KILBORN / FEATHERSTON",,45.387493,-75.651558,,,0
AI100,8415,"KILBORN / FEATHERSTON",,45.387341,-75.651405,,,0
AI110,7215,"KILBORN / PLAYFAIR",,45.38765,-75.649513,,,0
AI120,7216,"KILBORN / PLAYFAIR",,45.387486,-75.649376,,,0
AI140,7227,"KILBORN / VIRGINIA",,45.38789,-75.645462,,,0
AI150,8416,"KILBORN / VIRGINIA",,45.387901,-75.643822,,,0
AI160,8418,"KILBORN / BEAUMONT",,45.388088,-75.643288,,,0
AI170,7229,"KILBORN / DELMAR",,45.388298,-75.64032,,,0
AI180,7228,"KILBORN / DELMAR",,45.388153,-75.639954,,,0
AI190,7230,"KILBORN / FEATHERSTON",,45.388386,-75.638405,,,0
AI200,8911,"KILBORN / FEATHERSTON",,45.388386,-75.637619,,,0
AI230,8333,"KILBORN / HAIG",,45.389378,-75.635513,,,0
AI240,8331,"KILBORN / HAIG",,45.389297,-75.635437,,,0
AI295,8414,"FEATHERSTON / RYDER",,45.384243,-75.636856,,,0
AI300,8411,"FEATHERSTON / RYDER",,45.384529,-75.636635,,,0
AI310,7219,"FEATHERSTON / CONNECTICUT",,45.383549,-75.639137,,,0
AI320,1353,"FEATHERSTON / CONNECTICUT",,45.383396,-75.638985,,,0
AI330,8410,"FEATHERSTON / VIRGINIA",,45.383186,-75.642593,,,0
AI340,7220,"FEATHERSTON / VIRGINIA",,45.383217,-75.64315,,,0
AI350,7221,"FEATHERSTON / JEFFERSON",,45.383171,-75.644165,,,0
AI360,7223,"JEFFERSON / FEATHERSTON",,45.382923,-75.64473,,,0
AI370,7222,"JEFFERSON / ARIZONA",,45.381645,-75.644623,,,0
AI380,7224,"JEFFERSON / HERON",,45.38068,-75.644318,,,0
AI400,8398,"RYDER / WALKLEY",,45.382477,-75.634315,,,0
AI450,5823,"HERON / JEFFERSON",,45.380272,-75.644882,,,0
AI460,8393,"HERON / SANDALWOOD",,45.37981,-75.648361,,,0
AI470,8818,"HERON / BRIARHILL",,45.379929,-75.649559,,,0
AI480,8397,"HERON / BAYCREST",,45.37965,-75.653343,,,0
AI490,4083,"HERON / BAYCREST",,45.379536,-75.652328,,,0
AI500,7225,"HERON / FINN",,45.37944,-75.65654,,,0
AI510,8392,"HERON / FINN",,45.379322,-75.656464,,,0
AI521,9005,"HERON / ALTA VISTA",,45.379093,-75.660759,,,0
AI530,7226,"HERON / ALTA VISTA",,45.378971,-75.660316,,,0
AJ005,1806,"RING ROAD / GENERAL HOSPITAL",,45.399914,-75.648544,,,0
AJ008,7072,"CHEO HOSPITAL",,45.399727,-75.651184,,,0
AJ010,1808,"RING ROAD / CHILDRENS HOSPITAL",,45.400879,-75.652405,,,0
AJ015,7231,"RING ROAD / MAISON RONALD MCDONALD HOUSE",,45.402058,-75.653435,,,0
AJ020,1591,"RING ROAD / REHABILITATION/CENTRE",,45.402958,-75.649857,,,0
AJ022,7232,"RING ROAD",,45.403721,-75.648621,,,0
AJ025,2089,"RING ROAD",,45.403442,-75.646141,,,0
AJ028,7233,"RING ROAD / CANCER CENTRE",,45.402103,-75.645203,,,0
AJ030,7234,"RING ROAD / GENERAL HOSPITAL",,45.399998,-75.647255,,,0
AJ080,8210,"SMYTH / ALTA VISTA",,45.398624,-75.661201,,,0
AJ090,8222,"SMYTH / FAIRBANKS",,45.398483,-75.659492,,,0
AJ100,7235,"SMYTH / VALOUR",,45.398739,-75.658501,,,0
AJ110,7237,"SMYTH / BARNHART",,45.39883,-75.654976,,,0
AJ120,7236,"SMYTH / BARNHART",,45.398914,-75.655357,,,0
AJ130,7238,"SMYTH / SOUTHHAVEN",,45.398918,-75.653656,,,0
AJ150,7239,"SMYTH / HIGHLAND",,45.399117,-75.650024,,,0
AJ180,8565,"SMYTH / LYNDA",,45.39938,-75.646904,,,0
AJ190,8564,"SMYTH / LYNDA",,45.399643,-75.645744,,,0
AJ200,7244,"SMYTH / ROGER GUINDON",,45.399876,-75.642235,,,0
AJ210,7242,"SMYTH / ROGER GUINDON",,45.399647,-75.642609,,,0
AJ220,8563,"SMYTH / BOTSFORD",,45.400066,-75.639793,,,0
AJ230,7243,"SMYTH / DAUPHIN",,45.399891,-75.639145,,,0
AJ240,7245,"SMYTH / HAIG",,45.40041,-75.635101,,,0
AJ250,8358,"SMYTH / HAIG",,45.400265,-75.634003,,,0
AJ260,8568,"SMYTH / SAUNDERSON",,45.400677,-75.631241,,,0
AJ270,7246,"SMYTH / SAUNDERSON",,45.400467,-75.631126,,,0
AJ280,8356,"SMYTH / CUBA",,45.400871,-75.628502,,,0
AJ290,8360,"SMYTH / CUBA",,45.400661,-75.628365,,,0
AJ300,8351,"SMYTH / RUSSELL",,45.400963,-75.626328,,,0
AJ310,7247,"SMYTH / OTHELLO",,45.400833,-75.626015,,,0
AJ320,8239,"PLEASANT PARK / ALTA VISTA",,45.393169,-75.662453,,,0
AJ330,7248,"PLEASANT PARK / AD. 327",,45.393391,-75.659256,,,0
AJ340,8243,"PLEASANT PARK / AD. 328",,45.393219,-75.65921,,,0
AJ350,7251,"PLEASANT PARK / FAIRBANKS",,45.39357,-75.656586,,,0
AJ360,7249,"PLEASANT PARK / FAIRBANKS",,45.39349,-75.655525,,,0
AJ370,8238,"PLEASANT PARK / AD. 433",,45.393764,-75.653862,,,0
AJ380,7250,"PLEASANT PARK / AD. 452",,45.393692,-75.652893,,,0
AJ390,7252,"PLEASANT PARK / AD. 501",,45.393963,-75.650322,,,0
AJ400,8244,"PLEASANT PARK / AD. 504",,45.393879,-75.650108,,,0
AJ410,7253,"PLEASANT PARK / LYNDA",,45.394188,-75.648094,,,0
AJ420,7255,"PLEASANT PARK / LYNDA",,45.394085,-75.647408,,,0
AJ430,7254,"PLEASANT PARK / NORWAY",,45.394382,-75.645119,,,0
AJ440,7256,"PLEASANT PARK / NORWAY",,45.39423,-75.645119,,,0
AK090,8338,"PLEASANT PARK / DORVAL",,45.393723,-75.640007,,,0
AK100,8335,"PLEASANT PARK / DORVAL",,45.393642,-75.639915,,,0
AK110,7268,"PLEASANT PARK / HAIG",,45.39386,-75.636749,,,0
AK120,8337,"PLEASANT PARK / HAIG",,45.394062,-75.636147,,,0
AK130,8336,"PLEASANT PARK / CAMROSE",,45.394115,-75.633499,,,0
AK140,7269,"PLEASANT PARK / CAMROSE",,45.394283,-75.633141,,,0
AK145,6915,"PLEASANT PARK / ARCH",,45.394226,-75.631721,,,0
AK151,3329,"PLEASANT PARK / ARCH",,45.394382,-75.631798,,,0
AK155,6918,"PLEASANT PARK / SAUNDERSON",,45.394527,-75.627441,,,0
AK160,7071,"PLEASANT PARK / SAUNDERSON",,45.394711,-75.62677,,,0
AK360,8340,"CANTERBURY / HALIFAX",,45.389423,-75.62619,,,0
AK366,540,"CANTERBURY / CANTERBURY H.S.",,45.388599,-75.625336,,,0
AK370,8345,"CANTERBURY / PLESSER",,45.389378,-75.626915,,,0
AK380,7275,"CANTERBURY / AD. 860",,45.389114,-75.629013,,,0
AK390,7276,"CANTERBURY / AD. 860",,45.389221,-75.629158,,,0
AK420,7277,"CANTERBURY / HARDING",,45.38903,-75.632034,,,0
AK430,7278,"CANTERBURY / HARDING",,45.389172,-75.631874,,,0
AK440,7279,"CANTERBURY / URBANDALE",,45.389179,-75.634186,,,0
AK500,5803,"HALIFAX / AD. 2215",,45.388813,-75.623787,,,0
AK510,5804,"HALIFAX / DAKOTA",,45.388195,-75.621666,,,0
AK530,1989,"WALKLEY / HALIFAX",,45.387543,-75.621262,,,0
AK540,8491,"WALKLEY / HALIFAX",,45.387688,-75.620201,,,0
AK550,7280,"WALKLEY / AD. 2099",,45.38665,-75.623528,,,0
AK560,8314,"WALKLEY / AD. 2080",,45.387047,-75.622246,,,0
AK590,8324,"WALKLEY / HARDING",,45.384975,-75.627777,,,0
AK600,1899,"WALKLEY / HARDING",,45.385281,-75.626556,,,0
AK610,7281,"WALKLEY / CONROY",,45.383507,-75.631378,,,0
AK620,7282,"WALKLEY / CONROY",,45.383934,-75.62957,,,0
AK630,8391,"WALKLEY / RYDER",,45.382042,-75.634888,,,0
AK641,6927,"WALKLEY / RYDER",,45.382313,-75.633835,,,0
AK650,7283,"WALKLEY / HERON",,45.381203,-75.636955,,,0
AK660,8388,"WALKLEY / HERON",,45.381248,-75.636238,,,0
AL050,8810,"ELMVALE MALL STOP",,45.399509,-75.623444,,,0
AL060,8813,"ELMVALE MALL STOP",,45.399212,-75.623291,,,0
AL090,8328,"ST LAURENT / AD. 1971",,45.397491,-75.622131,,,0
AL100,8329,"ST LAURENT / TAWNEY",,45.396267,-75.621681,,,0
AL110,7284,"ST LAURENT / TAWNEY",,45.396084,-75.621376,,,0
AL130,8347,"ST LAURENT / CONNERY",,45.393978,-75.620422,,,0
AL140,8346,"ST LAURENT / NERTA",,45.393867,-75.620117,,,0
AL150,7286,"ST LAURENT / JOLIFFE",,45.392189,-75.619186,,,0
AL160,7285,"ST LAURENT / JOLIFFE",,45.392426,-75.619514,,,0
AL170,8348,"ST LAURENT / FOLEY",,45.389805,-75.618111,,,0
AL180,7287,"ST LAURENT / SUSAN",,45.390499,-75.618256,,,0
AL200,7288,"ST LAURENT / WALKLEY",,45.389469,-75.617699,,,0
AL210,2482,"WALKLEY / ST LAURENT",,45.389168,-75.617104,,,0
AL220,8315,"WALKLEY / ST LAURENT",,45.389065,-75.616997,,,0
AL230,8323,"WALKLEY / TAWNEY",,45.390114,-75.615105,,,0
AL240,7289,"WALKLEY / TAWNEY",,45.390339,-75.613853,,,0
AL250,8322,"WALKLEY / MELFORT",,45.391666,-75.611198,,,0
AL260,7290,"WALKLEY / MELFORT",,45.391884,-75.610107,,,0
AL270,7291,"WALKLEY / RUSSELL",,45.392715,-75.608437,,,0
AL280,6898,"WALKLEY / LANCASTER",,45.393978,-75.604027,,,0
AL285,6899,"WALKLEY / LANCASTER",,45.394131,-75.603973,,,0
AL300,8316,"RUSSELL / WALKLEY",,45.393635,-75.608566,,,0
AL311,1237,"RUSSELL / SOUTHVALE",,45.393993,-75.610039,,,0
AL320,8281,"RUSSELL / SOUTHVALE",,45.394379,-75.610535,,,0
AL330,7292,"RUSSELL / TUPPER",,45.395454,-75.613403,,,0
AL340,7295,"RUSSELL / TUPPER",,45.395226,-75.612701,,,0
AL350,7296,"RUSSELL / DWIGHT",,45.396896,-75.615997,,,0
AL360,7293,"RUSSELL / DWIGHT",,45.396885,-75.615639,,,0
AL370,7297,"RUSSELL / SOUTHVALE",,45.398148,-75.618301,,,0
AL380,7294,"RUSSELL / SOUTHVALE",,45.398693,-75.618958,,,0
AL404,640,"SOUTHVALE / RUSSELL",,45.394753,-75.609993,,,0
AL405,8364,"SOUTHVALE / AD. 2630",,45.395599,-75.609886,,,0
AL407,660,"SOUTHVALE / BLACKSTONE",,45.39558,-75.609642,,,0
AL415,7298,"SOUTHVALE / AD. 2566",,45.397682,-75.611603,,,0
AL417,641,"SOUTHVALE / BARRYMORE",,45.397671,-75.611275,,,0
AL425,7299,"SOUTHVALE / ERINBROOK",,45.399063,-75.614723,,,0
AL435,7300,"SOUTHVALE / AD. 2450",,45.399158,-75.616463,,,0
AL437,642,"SOUTHVALE / DELRIDGE",,45.398838,-75.613159,,,0
AL443,643,"SOUTHVALE / RUSSELL",,45.399288,-75.616844,,,0
AL445,7301,"SOUTHVALE / RUSSELL",,45.39875,-75.618217,,,0
AL594,4044,"OLD INNES / BANTREE",,45.410034,-75.618248,,,0
AL595,4047,"OLD INNES / BANTREE",,45.409969,-75.619011,,,0
AL597,7318,"OLD INNES / INNES PARK",,45.410843,-75.616852,,,0
AL598,7312,"OLD INNES / INNES PARK",,45.410725,-75.616661,,,0
AL600,7313,"SHEFFIELD / AD. 2464",,45.409119,-75.609161,,,0
AL605,7319,"SHEFFIELD / AD. 2473",,45.409603,-75.609245,,,0
AL610,7314,"SHEFFIELD / BANTREE",,45.406982,-75.60791,,,0
AL615,7320,"SHEFFIELD / BANTREE",,45.407318,-75.607887,,,0
AL620,6594,"2630 SHEFFIELD",,45.404652,-75.606476,,,0
AL625,6593,"2625 SHEFFIELD",,45.404621,-75.606255,,,0
AL633,6592,"SHEFFIELD / LEEDS",,45.402672,-75.605263,,,0
AL635,4045,"SHEFFIELD / LEEDS",,45.402225,-75.604828,,,0
AL640,7324,"SHEFFIELD / AD. 2750",,45.40004,-75.603676,,,0
AL645,7326,"SHEFFIELD / AD. 2740",,45.40049,-75.603767,,,0
AL660,7325,"SHEFFIELD / AD. 2780",,45.398891,-75.603004,,,0
AL665,7327,"SHEFFIELD / AD. 2801",,45.398819,-75.602776,,,0
CA040,1146,"WELLINGTON / BAY",,45.419495,-75.707047,,,0
CA080,7682,"BANK / QUEEN",,45.420658,-75.701088,,,0
CA090,7687,"BANK / SLATER",,45.419392,-75.700027,,,0
CA100,7688,"BANK / SLATER",,45.419109,-75.699486,,,0
CA110,7546,"BANK / SPARKS",,45.421387,-75.701424,,,0
CA120,7683,"QUEEN / BANK",,45.420506,-75.701149,,,0
CA130,7684,"QUEEN / KENT",,45.419346,-75.70385,,,0
CA155,1368,"QUEEN / KENT",,45.4198,-75.702362,,,0
CA300,7689,"BAY / ALBERT",,45.417324,-75.705719,,,0
CA310,1148,"BAY / QUEEN",,45.417988,-75.706284,,,0
CA320,7549,"BAY / SPARKS",,45.418594,-75.706825,,,0
CA340,7550,"LYON / QUEEN",,45.418869,-75.705261,,,0
CA350,1149,"LYON / QUEEN",,45.418434,-75.704872,,,0
CA400,367,"KENT / QUEEN",,45.419453,-75.70266,,,0
CA920,3003,"ALBERT / KENT",,45.418812,-75.703209,,,0
CA930,3004,"ALBERT / BAY",,45.417103,-75.707077,,,0
CA940,3005,"SLATER / BAY",,45.416164,-75.706902,,,0
CA950,3006,"SLATER / KENT",,45.4179,-75.70282,,,0
CB050,7691,"WELLINGTON / METCALFE",,45.423588,-75.697807,,,0
CB080,7692,"WELLINGTON / O'CONNOR",,45.422825,-75.6996,,,0
CB100,7693,"WELLINGTON / O'CONNOR",,45.422699,-75.6996,,,0
CB110,7694,"WELLINGTON / METCALFE (PARLIAMENT)",,45.423664,-75.697311,,,0
CB150,7557,"ELGIN / RIDEAU",,45.424431,-75.694756,,,0
CB160,7558,"ELGIN / QUEEN",,45.423264,-75.695335,,,0
CB170,7559,"ELGIN / SLATER",,45.422031,-75.694092,,,0
CB175,7560,"ELGIN / SLATER",,45.421837,-75.693298,,,0
CB200,1228,"QUEEN / O'CONNOR",,45.421658,-75.698463,,,0
CB240,7561,"QUEEN / BANK",,45.420593,-75.700485,,,0
CB260,1512,"QUEEN / METCALFE",,45.421982,-75.697273,,,0
CB900,3001,"ALBERT / METCALFE",,45.421814,-75.69619,,,0
CB910,3002,"ALBERT / BANK",,45.420422,-75.699501,,,0
CB960,3007,"SLATER / BANK",,45.419674,-75.698814,,,0
CB970,3008,"SLATER / METCALFE",,45.42115,-75.695343,,,0
CC050,6823,"TORMEY / COBOURG",,45.433037,-75.677429,,,0
CC060,6824,"CHARLOTTE / RIDEAU",,45.432785,-75.676544,,,0
CC065,4068,"CHARLOTTE / TORMEY",,45.43309,-75.676598,,,0
CC070,6822,"COBOURG / BEAUSOLEIL",,45.432911,-75.67878,,,0
CC080,1692,"COBOURG / BEAUSOLEIL",,45.433109,-75.678802,,,0
CC090,6825,"COBOURG / CLARENCE",,45.434238,-75.679764,,,0
CC100,2402,"COBOURG / CLARENCE",,45.434666,-75.680428,,,0
CC110,7568,"COBOURG / ST PATRICK",,45.435123,-75.681259,,,0
CC120,7567,"COBOURG / ST PATRICK",,45.435394,-75.681351,,,0
CC130,5875,"ROCKCLIFFE RETIREMENT RESIDENCE",,45.438141,-75.68158,,,0
CC140,447,"GARRY J ARMSTRONG",,45.43821,-75.683708,,,0
CC170,7571,"ST PATRICK / COBOURG",,45.43605,-75.681404,,,0
CC180,6830,"OLD ST PATRICK / COBOURG",,45.435287,-75.682625,,,0
CC190,2964,"OLD ST PATRICK / COBOURG",,45.435406,-75.681946,,,0
CC200,6828,"OLD ST PATRICK / BEAUSOLEIL",,45.434311,-75.684929,,,0
CC210,6827,"OLD ST PATRICK / DE LA SALLE H.S.",,45.434311,-75.684471,,,0
CC220,1904,"BEAUSOLEIL / ST PATRICK",,45.434486,-75.686394,,,0
CC230,2319,"ST PATRICK / BEAUSOLEIL",,45.43433,-75.687355,,,0
CC260,2321,"ST PATRICK / CUMBERLAND",,45.431755,-75.691025,,,0
CC320,2322,"MURRAY / DALHOUSIE",,45.430428,-75.691551,,,0
CC330,7575,"MURRAY / CUMBERLAND",,45.431332,-75.689468,,,0
CC335,2320,"MURRAY / KING EDWARD",,45.432255,-75.687859,,,0
CC340,6402,"DALHOUSIE / ST PATRICK",,45.430573,-75.692741,,,0
CC345,1883,"DALHOUSIE / ST PATRICK",,45.430786,-75.692696,,,0
CC350,6838,"DALHOUSIE / YORK",,45.42894,-75.691246,,,0
CC360,6837,"DALHOUSIE / CLARENCE",,45.429462,-75.691505,,,0
CC370,7577,"DALHOUSIE / RIDEAU",,45.427372,-75.689819,,,0
CC380,7576,"DALHOUSIE / RIDEAU",,45.427338,-75.69001,,,0
CC510,2404,"BOTELER / SUSSEX",,45.433636,-75.698639,,,0
CC520,7578,"BOTELER / PARENT",,45.434185,-75.697227,,,0
CC530,7579,"BOTELER / DALHOUSIE",,45.434509,-75.696381,,,0
CC535,1884,"DALHOUSIE / BRUYÈRE",,45.432564,-75.694389,,,0
CC550,6831,"SUSSEX / AD. 100",,45.438835,-75.696457,,,0
CC560,6832,"SUSSEX / KING EDWARD",,45.438847,-75.696243,,,0
CC580,6836,"SUSSEX / BOTELER",,45.43346,-75.699127,,,0
CC600,7581,"SUSSEX / BRUYÈRE",,45.431473,-75.698326,,,0
CC670,2490,"BRUYERE / PARENT",,45.431919,-75.696617,,,0
CC675,7585,"BRUYERE / PARENT",,45.432232,-75.695923,,,0
CC680,2996,"BRUYÈRE / DALHOUSIE",,45.432568,-75.695023,,,0
CD020,2337,"RIDEAU / CHARLOTTE",,45.432526,-75.676811,,,0
CD030,7590,"RIDEAU / CHARLOTTE",,45.432552,-75.676392,,,0
CD040,2325,"RIDEAU / AUGUSTA",,45.431984,-75.678223,,,0
CD050,2331,"RIDEAU / AUGUSTA",,45.431541,-75.678902,,,0
CD060,7591,"RIDEAU / CHAPEL",,45.430923,-75.680756,,,0
CD080,2323,"RIDEAU / FRIEL",,45.430279,-75.682266,,,0
CD090,7593,"RIDEAU / FRIEL",,45.430252,-75.681946,,,0
CD100,7594,"RIDEAU / NELSON",,45.429626,-75.683868,,,0
CD110,2333,"RIDEAU / NELSON",,45.429348,-75.684082,,,0
CD120,1658,"RIDEAU / KING EDWARD",,45.428547,-75.68647,,,0
CD130,7595,"RIDEAU / KING EDWARD",,45.428913,-75.685112,,,0
CD140,2351,"RIDEAU / CUMBERLAND",,45.427818,-75.687798,,,0
CD150,7596,"RIDEAU / DALHOUSIE",,45.427353,-75.689339,,,0
CD900,3000,"MACKENZIE KING 1A",,45.424129,-75.689369,,,0
CD910,3000,"MACKENZIE KING 2A",,45.424118,-75.68998,,,0
CD920,3009,"RIDEAU 3A (RIDEAU ST.)",,45.426365,-75.691154,,,0
CD935,3009,"RIDEAU 4A (RIDEAU ST.)",,45.42622,-75.691895,,,0
CD955,3020,"LAURIER 1A",,45.424519,-75.687164,,,0
CD960,3020,"LAURIER 2A",,45.424709,-75.687012,,,0
CD975,3021,"CAMPUS 1A",,45.420345,-75.682053,,,0
CD985,3021,"CAMPUS 2A",,45.420486,-75.681892,,,0
CE010,5857,"CHARLOTTE / BESSERER",,45.432384,-75.675819,,,0
CE020,6816,"CHARLOTTE / BESSERER",,45.432259,-75.675972,,,0
CE040,6815,"CHARLOTTE / STEWART",,45.430775,-75.674446,,,0
CE050,7604,"CHARLOTTE / WILBROD",,45.430042,-75.674194,,,0
CE060,7605,"LAURIER E / RANGE",,45.428871,-75.67421,,,0
CE070,6817,"LAURIER / RANGE",,45.428848,-75.67482,,,0
CE080,7606,"LAURIER / GOULBURN",,45.428291,-75.676147,,,0
CE090,6814,"LAURIER / GOULBOURN",,45.427837,-75.67659,,,0
CE100,7607,"LAURIER / CHAPEL",,45.427494,-75.678001,,,0
CE110,7608,"LAURIER / CHAPEL",,45.427422,-75.677666,,,0
CE120,6818,"LAURIER / SWEETLAND",,45.4263,-75.680878,,,0
CE130,6869,"LAURIER / SWEETLAND",,45.426308,-75.68029,,,0
CE140,7609,"LAURIER / KING EDWARD",,45.425514,-75.68277,,,0
CE150,6812,"LAURIER / KING EDWARD",,45.425022,-75.68335,,,0
CE160,6819,"LAURIER / CUMBERLAND",,45.424728,-75.684647,,,0
CE170,7610,"LAURIER E / CUMBERLAND",,45.42437,-75.684921,,,0
CE175,7611,"LAURIER E / WALLER",,45.423882,-75.686035,,,0
CE205,8259,"SOMERSET E / KING EDWARD",,45.422112,-75.67984,,,0
CE210,6796,"SOMERSET E / KING EDWARD",,45.422245,-75.679962,,,0
CE220,6792,"SOMERSET E / SWEETLAND",,45.423138,-75.677422,,,0
CE230,6795,"SOMERSET E / SWEETLAND",,45.42337,-75.677307,,,0
CE240,7614,"SOMERSET E / CHAPEL",,45.423931,-75.675545,,,0
CE250,6794,"SOMERSET E / CHAPEL",,45.424217,-75.675186,,,0
CE260,7615,"SOMERSET E / GOULBOURN",,45.42506,-75.673218,,,0
CE270,7616,"RANGE / TEMPLETON",,45.423939,-75.670265,,,0
CE280,6793,"MANN / GOULBOURN",,45.421745,-75.670502,,,0
CE290,7617,"MANN / CHAPEL",,45.421101,-75.67202,,,0
CE330,2307,"MANN / GREENFIELD",,45.418751,-75.678154,,,0
CE365,7613,"KING EDWARD / OSGOODE",,45.423641,-75.681389,,,0
CE368,7612,"KING EDWARD / OSGOODE",,45.423904,-75.681786,,,0
CE370,6408,"CHAPEL / TEMPLETON",,45.422771,-75.674286,,,0
CE375,7621,"CHAPEL / MANN",,45.420979,-75.672791,,,0
CE380,6805,"CHAPEL / WIGGINS",,45.419659,-75.671745,,,0
CE390,6804,"CHAPEL / WIGGINS",,45.419964,-75.671638,,,0
CE400,6806,"LEES / CHAPEL",,45.41827,-75.669968,,,0
CE410,6803,"LEES / CHAPEL",,45.418465,-75.669838,,,0
CE440,6801,"LEES / HIGHWAY 417 RAMP",,45.4151,-75.672119,,,0
CE450,6807,"LEES / HIGHWAY 417 RAMP",,45.415295,-75.672104,,,0
CE460,7622,"LEES / BRUNSWICK",,45.41431,-75.673897,,,0
CE470,6808,"LEES / CONCORD",,45.413517,-75.676361,,,0
CE480,6800,"LEES / CONCORD",,45.413364,-75.676147,,,0
CE495,1268,"LEES / ROSEMERE",,45.412769,-75.677658,,,0
CE500,7625,"LEES / MAIN",,45.412239,-75.679001,,,0
CE510,7624,"LEES / MAIN",,45.412334,-75.679176,,,0
CE915,3022,"LEES 1A",,45.416374,-75.670723,,,0
CE920,3022,"LEES 1B - NIGHT STOP ONLY",,45.41621,-75.670303,,,0
CE945,3022,"LEES 2A",,45.416481,-75.670517,,,0
CE960,3022,"LEES 3A",,45.415977,-75.670372,,,0
CE970,3022,"LEES 4A",,45.415939,-75.670166,,,0
CF010,6894,"ISABELLA / O'CONNOR",,45.409683,-75.688873,,,0
CF015,2428,"METCALFE / PRETORIA",,45.410397,-75.686424,,,0
CF020,6854,"PRETORIA / ELGIN",,45.410549,-75.685242,,,0
CF030,7628,"PRETORIA / METCALFE",,45.409992,-75.686623,,,0
CF040,7629,"PRETORIA / O'CONNOR",,45.409355,-75.688187,,,0
CF060,6852,"O'CONNOR / CLEMOW",,45.40696,-75.6866,,,0
CF070,7630,"O'CONNOR / THIRD",,45.40469,-75.684685,,,0
CF080,2448,"THIRD / BANK",,45.403229,-75.688026,,,0
CF090,6843,"GLEBE / BANK",,45.405285,-75.689178,,,0
CF100,7631,"O'CONNOR / LINDEN",,45.40696,-75.686348,,,0
CF110,6853,"O'CONNOR / PATTERSON",,45.408371,-75.687477,,,0
CF120,7632,"STRATHCONA / METCALFE",,45.409195,-75.686058,,,0
CF140,2447,"HAWTHORNE / COLONEL BY",,45.411789,-75.682304,,,0
CF150,7633,"HAWTHORNE / COLONEL BY",,45.411926,-75.682594,,,0
CF160,7634,"HAWTHORNE / MAIN",,45.41264,-75.680656,,,0
CF170,7635,"MAIN / GRAHAM",,45.412205,-75.680023,,,0
CF175,6799,"MAIN / LEES",,45.411957,-75.679543,,,0
CF185,502,"MAIN / EVELYN",,45.411201,-75.679436,,,0
CF186,503,"MAIN / GRAHAM",,45.411713,-75.67939,,,0
CF190,6809,"MAIN / EVELYN",,45.411129,-75.679382,,,0
CF200,7636,"MAIN / OBLATE",,45.4095,-75.678093,,,0
CF210,7639,"MAIN / HAZEL",,45.408741,-75.677902,,,0
CF230,6811,"MAIN / HERRIDGE",,45.407539,-75.677292,,,0
CF240,7638,"MAIN / HAZEL",,45.408298,-75.677383,,,0
CF250,7640,"MAIN / CLEGG",,45.406475,-75.676666,,,0
CF260,6798,"MAIN / CLEGG",,45.406616,-75.676407,,,0
CF270,7641,"MAIN / BOWER",,45.404522,-75.675537,,,0
CF280,7642,"MAIN / BECKWITH",,45.404285,-75.675079,,,0
CF290,6748,"MAIN / RIVERDALE",,45.403149,-75.674797,,,0
CF310,6747,"MAIN / CENTENNIAL",,45.40202,-75.674141,,,0
CF330,6749,"RIVERDALE / GLENVIEW",,45.401924,-75.675613,,,0
CF340,6744,"RIVERDALE / GLENVIEW",,45.402172,-75.675133,,,0
CF350,7643,"RIVERDALE / AD. 100 RIVERDALE",,45.400242,-75.677231,,,0
CF360,7644,"RIVERDALE / AD. 111",,45.400196,-75.677017,,,0
CF370,6750,"RIVERDALE / ECHO",,45.39883,-75.678375,,,0
CF380,7648,"RIVERDALE / AVENUE",,45.398937,-75.678146,,,0
CF390,7645,"RIVERDALE / SOUTHERN",,45.397358,-75.679024,,,0
CF400,6743,"RIVERDALE / SOUTHERN",,45.397663,-75.678764,,,0
CF410,7646,"RIVERDALE / SUNNYSIDE",,45.396233,-75.679138,,,0
CF420,7649,"RIVERDALE / SUNNYSIDE",,45.395882,-75.67897,,,0
CF430,7647,"RIVERDALE / BELMONT",,45.393524,-75.679115,,,0
CF440,6742,"RIVERDALE / BELMONT",,45.393604,-75.678902,,,0
CF450,6751,"RIVERDALE / CAMERON",,45.391788,-75.679077,,,0
CF460,7650,"RIVERDALE / WINDSOR",,45.392551,-75.678917,,,0
CF485,3325,"BANK / RIVERDALE",,45.389679,-75.67878,,,0
CF490,6741,"BANK / RIVERDALE",,45.389896,-75.678673,,,0
CF500,6740,"BANK / CAMERON",,45.391163,-75.680748,,,0
CF510,7653,"BANK / CAMERON",,45.391304,-75.680519,,,0
CF520,7654,"BANK / GROVE",,45.392406,-75.682236,,,0
CF530,2414,"BANK / BELMONT",,45.392784,-75.682281,,,0
CF540,6778,"BANK / HOPEWELL",,45.393654,-75.683174,,,0
CF550,7655,"BANK / SUNNYSIDE",,45.394508,-75.683403,,,0
CF560,6774,"BANK / AYLMER",,45.395641,-75.684372,,,0
CF570,6773,"BANK / AYLMER",,45.395477,-75.684029,,,0
CF600,3080,"LANSDOWNE TD PLACE",,45.398911,-75.686195,,,0
CF610,3080,"LANSDOWNE TD PLACE",,45.399017,-75.686028,,,0
CF630,6840,"BANK / HOLMWOOD",,45.400032,-75.686531,,,0
CF640,6847,"BANK / FIFTH",,45.401424,-75.687584,,,0
CF650,7659,"BANK / FIFTH",,45.401321,-75.687317,,,0
CF660,7660,"BANK / THIRD",,45.403149,-75.68856,,,0
CF670,6841,"BANK / THIRD",,45.40321,-75.688416,,,0
CF700,7662,"BANK / GLEBE",,45.405201,-75.689781,,,0
CF710,6842,"BANK / FIRST",,45.404713,-75.68924,,,0
CF720,7663,"BANK / POWELL",,45.406349,-75.690376,,,0
CF730,7664,"BANK / PATTERSON",,45.40715,-75.690582,,,0
CF740,6845,"BANK / CHAMBERLAIN",,45.40802,-75.691338,,,0
CF750,6844,"BANK / ISABELLA",,45.408405,-75.691368,,,0
CG010,6856,"GLEBE / BRONSON",,45.401054,-75.69915,,,0
CG020,6670,"GLEBE / PERCY",,45.402279,-75.696335,,,0
CG030,6673,"GLEBE / LYON",,45.403568,-75.693176,,,0
CG040,6857,"THIRD / LYON",,45.401848,-75.691399,,,0
CG060,6858,"THIRD / CHRYSLER",,45.399952,-75.696037,,,0
CG070,6675,"THIRD / BRONSON",,45.399174,-75.698006,,,0
CG100,6887,"CHAMBERLAIN / PERCY",,45.405228,-75.698853,,,0
CG120,6850,"CHAMBERLAIN / KENT",,45.407433,-75.693451,,,0
CG130,6677,"CHAMBERLAIN / BANK",,45.408356,-75.691597,,,0
CG140,6874,"BRONSON / PLYMOUTH",,45.403454,-75.701263,,,0
CG155,1585,"BRONSON / CHAMBERLAIN",,45.403343,-75.700859,,,0
CG160,6789,"BRONSON / CLEMOW",,45.401836,-75.700325,,,0
CG170,6866,"BRONSON / CLEMOW",,45.4016,-75.699913,,,0
CG180,2413,"BRONSON / FIRST",,45.40049,-75.699478,,,0
CG190,6862,"BRONSON / GLEBE",,45.400879,-75.699432,,,0
CG210,6860,"BRONSON / THIRD",,45.399242,-75.698578,,,0
CG220,6864,"BRONSON / KIPPEWA",,45.398422,-75.69828,,,0
CG230,6681,"BRONSON / MADAWASKA",,45.397629,-75.697899,,,0
CG240,6678,"BRONSON / FIFTH",,45.397461,-75.697533,,,0
CG250,6679,"BRONSON / HOLMWOOD",,45.395863,-75.696655,,,0
CG260,6865,"BRONSON / LAKEVIEW",,45.39608,-75.696945,,,0
CG270,6682,"BRONSON / COLONEL BY",,45.393421,-75.696129,,,0
CG280,6680,"BRONSON / COLONEL BY",,45.393185,-75.695839,,,0
CG290,2438,"BRONSON / SUNNYSIDE",,45.390499,-75.694061,,,0
CG300,6781,"BRONSON / SUNNYSIDE",,45.389481,-75.693718,,,0
CG310,7959,"BRONSON / BREWER",,45.386551,-75.691414,,,0
CG320,6780,"BRONSON / BREWER",,45.387459,-75.691704,,,0
CG330,6737,"SENECA / GLEN",,45.390457,-75.68924,,,0
CG340,6738,"GROVE / SENECA",,45.389774,-75.688148,,,0
CG350,6685,"GROVE / LEONARD",,45.390297,-75.686836,,,0
CG360,6686,"GROVE / GROSVENOR",,45.391216,-75.684578,,,0
CG370,6687,"GROVE / BANK",,45.392223,-75.682159,,,0
CG380,6775,"SUNNYSIDE / BANK",,45.394093,-75.683937,,,0
CG390,6776,"SUNNYSIDE / GROSVENOR",,45.393368,-75.685822,,,0
CG410,6777,"SUNNYSIDE / SENECA",,45.391491,-75.690239,,,0
CG420,6683,"SUNNYSIDE / SENECA",,45.391373,-75.690147,,,0
CG430,6689,"SUNNYSIDE / BRONSON",,45.390251,-75.693329,,,0
CG440,6684,"SUNNYSIDE / CARRAWAY",,45.390461,-75.692352,,,0
CG450,6790,"SUNNYSIDE / BRONSON",,45.38945,-75.695122,,,0
CG600,6612,"CAMPUS / COMMONS",,45.385262,-75.696518,,,0
CG605,5813,"CAMPUS / LIBRARY",,45.384361,-75.696472,,,0
CG610,5810,"CAMPUS / UNIVERSITY",,45.382416,-75.695839,,,0
CG615,6610,"UNIVERSITY / GYMNASIUM",,45.384888,-75.694504,,,0
CG990,3062,"O-TRAIN CARLETON N.",,45.385483,-75.695831,,,0
CG995,3062,"O-TRAIN CARLETON S.",,45.385529,-75.696014,,,0
CH010,2486,"BANK / GLOUCESTER",,45.417969,-75.698784,,,0
CH020,2484,"BANK / GLOUCESTER",,45.417797,-75.698349,,,0
CH030,2487,"BANK / LISGAR",,45.416714,-75.697731,,,0
CH040,1902,"BANK / SOMERSET",,45.415642,-75.69648,,,0
CH050,2488,"BANK / SOMERSET",,45.415028,-75.696281,,,0
CH060,2483,"BANK / LEWIS",,45.413651,-75.694717,,,0
CH070,7665,"BANK / GILMOUR",,45.413651,-75.695,,,0
CH080,8798,"BANK / GLADSTONE",,45.412464,-75.693726,,,0
CH090,2489,"BANK / GLADSTONE",,45.4118,-75.693512,,,0
CH100,7667,"BANK / FLORA",,45.411041,-75.692902,,,0
CH110,7666,"BANK / ARLINGTON",,45.410244,-75.692627,,,0
CH120,8895,"BANK / CATHERINE",,45.409302,-75.691879,,,0
CH130,2478,"CATHERINE / BANK",,45.409687,-75.691902,,,0
CH140,7668,"CATHERINE / O'CONNOR",,45.410847,-75.689148,,,0
CH160,2374,"GLADSTONE / O'CONNOR",,45.413124,-75.691498,,,0
CH170,7669,"GLADSTONE / O'CONNOR",,45.412846,-75.691856,,,0
CH180,7672,"GLADSTONE / METCALFE",,45.413681,-75.69017,,,0
CH190,7670,"GLADSTONE / METCALFE",,45.413712,-75.689621,,,0
CH200,7671,"GLADSTONE / ELGIN",,45.414375,-75.688103,,,0
CH210,2476,"ELGIN / CATHERINE",,45.412281,-75.685707,,,0
CH220,2466,"ELGIN / ARGYLE",,45.412766,-75.685829,,,0
CH230,2473,"ELGIN / MCLEOD",,45.41383,-75.686989,,,0
CH240,2468,"ELGIN / MCLEOD",,45.414028,-75.686974,,,0
CH250,2472,"ELGIN / GLADSTONE",,45.41473,-75.687798,,,0
CH260,6403,"ELGIN / WAVERLY",,45.415585,-75.688255,,,0
CH270,7673,"ELGIN / LEWIS",,45.415981,-75.688812,,,0
CH280,2469,"ELGIN / GILMOUR",,45.416462,-75.689034,,,0
CH290,2471,"ELGIN / SOMERSET",,45.417595,-75.690239,,,0
CH300,7674,"ELGIN / COOPER",,45.418461,-75.690704,,,0
CH310,7676,"ELGIN / LISGAR",,45.418934,-75.691383,,,0
CH320,8465,"ELGIN / NEPEAN",,45.419857,-75.692238,,,0
CH330,7675,"ELGIN / LAURIER",,45.4198,-75.691734,,,0
CI010,2480,"CATHERINE / KENT",,45.408573,-75.694603,,,0
CI020,6623,"CATHERINE / BAY",,45.407246,-75.697823,,,0
CI030,2481,"CATHERINE / PERCY",,45.406166,-75.700409,,,0
CI050,6878,"BRONSON / CATHERINE",,45.405659,-75.702255,,,0
CI060,2376,"BRONSON / RAYMOND",,45.40554,-75.702408,,,0
CI070,6624,"BRONSON / GLADSTONE",,45.407539,-75.703583,,,0
CI090,6879,"BRONSON / GLADSTONE",,45.407825,-75.703476,,,0
CI100,6625,"BRONSON / SOMERSET W",,45.411331,-75.705513,,,0
CI110,5690,"BRONSON / SOMERSET W",,45.41172,-75.705986,,,0
CI120,2366,"BRONSON / PRIMROSE",,45.412926,-75.706787,,,0
CI130,2365,"BRONSON / NEPEAN",,45.413681,-75.706856,,,0
CI140,6627,"BRONSON / LAURIER",,45.414837,-75.707565,,,0
CI145,6626,"BRONSON / LAURIER",,45.414532,-75.70771,,,0
CI280,1548,"SOMERSET W / BANK",,45.415283,-75.696854,,,0
CI290,6635,"SOMERSET W / KENT",,45.414356,-75.69902,,,0
CI300,2339,"SOMERSET W / KENT",,45.414299,-75.698685,,,0
CI310,1546,"SOMERSET W / LYON",,45.413265,-75.701584,,,0
CI320,6636,"SOMERSET W / LYON",,45.413502,-75.700775,,,0
CI330,6638,"SOMERSET W / BAY",,45.4128,-75.702988,,,0
CI335,1987,"SOMERSET W / BRONSON",,45.41169,-75.705559,,,0
CI340,6637,"SOMERSET W / PERCY",,45.412354,-75.703552,,,0
CI350,2363,"SOMERSET W / BRONSON",,45.411583,-75.705376,,,0
CI360,2375,"GLADSTONE / BRONSON",,45.40807,-75.703598,,,0
CI380,6639,"GLADSTONE / PERCY",,45.408928,-75.701515,,,0
CI390,2378,"GLADSTONE / PERCY",,45.409069,-75.700874,,,0
CI400,6640,"GLADSTONE / BAY",,45.409618,-75.699875,,,0
CI410,6644,"GLADSTONE / BAY",,45.409809,-75.699089,,,0
CI420,6645,"GLADSTONE / LYON",,45.410236,-75.697998,,,0
CI430,6641,"GLADSTONE / LYON",,45.41061,-75.697571,,,0
CI440,6642,"GLADSTONE / KENT",,45.41116,-75.696159,,,0
CI450,6646,"GLADSTONE / KENT",,45.411102,-75.695946,,,0
CI460,6643,"GLADSTONE / BANK",,45.411991,-75.694221,,,0
CI470,8107,"GLADSTONE / BANK",,45.411907,-75.693993,,,0
CJ010,2396,"SLATER / EMPRESS",,45.413872,-75.709961,,,0
CJ020,6875,"TRANSITWAY / ALBERT",,45.413952,-75.710777,,,0
CJ075,2392,"ALBERT / TRANSITWAY",,45.413654,-75.711006,,,0
CJ080,6647,"ALBERT / BOOTH",,45.412682,-75.713249,,,0
CJ085,5783,"ALBERT / BOOTH",,45.412598,-75.712936,,,0
CJ087,938,"ALBERT / PERKINS",,45.413456,-75.710999,,,0
CJ100,8005,"PRESTON / ALBERT",,45.41124,-75.715782,,,0
CJ110,2371,"PRESTON / ALBERT",,45.411034,-75.716003,,,0
CJ120,6648,"PRESTON / ELM",,45.409977,-75.715012,,,0
CJ130,6650,"PRESTON / ELM",,45.409924,-75.715286,,,0
CJ140,6651,"PRESTON / SOMERSET W",,45.40844,-75.714401,,,0
CJ150,6649,"PRESTON / SOMERSET W",,45.408268,-75.714073,,,0
CJ160,2360,"PRESTON / OAK",,45.40704,-75.713577,,,0
CJ165,8004,"PRESTON / ANDERSON",,45.40749,-75.713608,,,0
CJ180,6652,"PRESTON / GLADSTONE",,45.404408,-75.711716,,,0
CJ190,2358,"PRESTON / LOUISA",,45.403748,-75.71151,,,0
CJ210,6653,"PRESTON / YOUNG",,45.402657,-75.710922,,,0
CJ220,8003,"PRESTON / YOUNG",,45.402718,-75.710625,,,0
CJ230,6654,"PRESTON / BEECH",,45.400654,-75.709694,,,0
CJ240,6656,"PRESTON / BEECH",,45.40094,-75.709618,,,0
CJ250,8002,"PRESTON / NORMAN",,45.399845,-75.708893,,,0
CJ260,6655,"PRESTON / ADELINE",,45.398457,-75.708321,,,0
CJ270,2397,"PRESTON / SIDNEY",,45.397804,-75.707924,,,0
CJ280,6657,"PRESTON / CARLING",,45.398163,-75.707863,,,0
CJ290,8013,"CARLING / NORFOLK",,45.398121,-75.706802,,,0
CJ300,8011,"CARLING / BOOTH",,45.398991,-75.704765,,,0
CJ310,8012,"CARLING / BOOTH",,45.398842,-75.704445,,,0
CJ320,8997,"CARLING / CAMBRIDGE",,45.400852,-75.700737,,,0
CJ330,6658,"CARLING / CAMBRIDGE",,45.400578,-75.700516,,,0
CJ361,1000,"BOOTH / DANIEL MCCANN",,45.402084,-75.706215,,,0
CJ363,9070,"BOOTH / ORANGEVILLE",,45.403107,-75.706802,,,0
CJ405,1354,"RAYMOND / LEBRETON",,45.404442,-75.705826,,,0
CJ410,6873,"RAYMOND / BRONSON",,45.405247,-75.702888,,,0
CJ420,2373,"GLADSTONE / ARTHUR",,45.40728,-75.705185,,,0
CJ425,6663,"GLADSTONE / BRONSON",,45.407738,-75.703835,,,0
CJ430,2556,"GLADSTONE / BELL",,45.406792,-75.706161,,,0
CJ440,6664,"GLADSTONE / BOOTH",,45.405968,-75.708252,,,0
CJ450,6662,"GLADSTONE / BOOTH",,45.405655,-75.708466,,,0
CJ460,2424,"GLADSTONE / ROCHESTER",,45.405392,-75.709602,,,0
CJ470,2372,"GLADSTONE / ROCHESTER",,45.405151,-75.709915,,,0
CJ480,8949,"GLADSTONE / PRESTON",,45.404778,-75.711769,,,0
CJ490,6665,"GLADSTONE / PRESTON",,45.404739,-75.711327,,,0
CJ500,2368,"SOMERSET W / ROCHESTER",,45.409039,-75.712425,,,0
CJ510,6666,"SOMERSET W / BOOTH",,45.409737,-75.710434,,,0
CJ520,2362,"SOMERSET W / BOOTH",,45.409344,-75.710663,,,0
CJ530,2367,"SOMERSET W / EMPRESS",,45.4105,-75.708588,,,0
CJ540,6668,"SOMERSET W / LEBRETON",,45.410175,-75.708794,,,0
CJ900,3010,"LEBRETON  1A",,45.414112,-75.713127,,,0
CJ901,3010,"LEBRETON 1A",,45.412567,-75.717789,,,0
CJ910,3010,"LEBRETON 1B",,45.413757,-75.714172,,,0
CJ920,3010,"LEBRETON / BOOTH",,45.413734,-75.713539,,,0
CJ930,3010,"LEBRETON  2A",,45.414284,-75.712318,,,0
CJ931,3010,"LEBRETON 2A",,45.412731,-75.71669,,,0
CJ940,3010,"LEBRETON 3A",,45.41375,-75.713104,,,0
CJ941,3010,"LEBRETON 3A",,45.413132,-75.717331,,,0
CK101,1150,"LAURIER / VICTORIA",,45.428139,-75.710289,,,0
CK103,1256,"LAURIER / COURCELETTE",,45.42577,-75.711517,,,0
CK105,1940,"LAURIER / ÉLISABETH-BRUYÈRE",,45.43047,-75.709885,,,0
CK110,6533,"ALLUMETTIÈRES / LAURIER",,45.43232,-75.710159,,,0
CK115,1304,"ALLUMETTIÈRES / CHAMPLAIN",,45.432247,-75.71241,,,0
CK125,1065,"MAISONNEUVE / ALLUMETTIÈRES",,45.432941,-75.712502,,,0
CK130,6532,"MAISONNEUVE / ALLUMETTIÈRES",,45.431854,-75.713081,,,0
CK140,1941,"MAISONNEUVE / PAPINEAU",,45.429787,-75.713043,,,0
CK150,6531,"MAISONNEUVE / PAPINEAU",,45.429787,-75.713455,,,0
CK155,3584,"MAISONNEUVE / DEVERDUN",,45.434711,-75.712189,,,0
CK160,5742,"MAISONNEUVE / PLACE D'ACCUEIL",,45.427227,-75.71386,,,0
CK170,1950,"MAISONNEUVE / COURCELETTE",,45.427216,-75.713478,,,0
CK175,3585,"SACRE COEUR / CHAMPLAIN",,45.437218,-75.711418,,,0
CK180,3586,"SACRE COEUR / LAURIER",,45.437153,-75.709007,,,0
CK183,3587,"LAURIER / DE VERDUN",,45.434734,-75.709244,,,0
CK190,3588,"LAURIER / ST ETIENNE",,45.433216,-75.709549,,,0
CK195,6534,"LAURIER / MAISONNEUVE",,45.424805,-75.715019,,,0
CK210,5718,"PROMENADE / TERRASSES DE LA CHAUDIÈRE",,45.424995,-75.721573,,,0
CK220,3161,"EDDY / LAURIER",,45.423218,-75.719757,,,0
CK230,6530,"EDDY / LAURIER",,45.423595,-75.719574,,,0
CK261,5722,"BOOTH / VIMY PLACE",,45.417355,-75.715172,,,0
CK266,433,"BOOTH / VIMY PLACE",,45.417412,-75.715378,,,0
CK270,756,"BOOTH / WELLINGTON",,45.416027,-75.714363,,,0
CK275,757,"BOOTH / FLEET",,45.415325,-75.714218,,,0
DT012,1350,"COVENTRY / LOLA",,45.421333,-75.651367,,,0
DT013,1351,"COVENTRY / LOLA",,45.421143,-75.651978,,,0
EA010,8722,"BIRCH / HEMLOCK",,45.449272,-75.662926,,,0
EA020,8735,"BIRCH / HEMLOCK",,45.449287,-75.662697,,,0
EA030,4373,"BIRCH / EASTBOURNE",,45.450577,-75.663101,,,0
EA040,4375,"BIRCH / EASTBOURNE",,45.450684,-75.66288,,,0
EA050,4374,"BIRCH / FARNHAM",,45.453785,-75.662582,,,0
EA060,4376,"BIRCH / FARNHAM",,45.453335,-75.662598,,,0
EA080,4377,"BIRCH / SANDRIDGE",,45.45565,-75.661438,,,0
EA090,8931,"SANDRIDGE / ROCKCLIFFE",,45.455879,-75.66095,,,0
EA100,4378,"SANDRIDGE / MERRIMAN",,45.45586,-75.659317,,,0
EA110,4379,"SANDRIDGE / KILBARRY",,45.456188,-75.656624,,,0
EA120,8736,"SANDRIDGE / KILBARRY",,45.455997,-75.657188,,,0
EA160,4380,"ST LAURENT / ARUNDEL",,45.455017,-75.654869,,,0
EA170,4384,"ST LAURENT / GASPE",,45.455105,-75.654709,,,0
EA200,4386,"ST LAURENT / BLASDELL",,45.453289,-75.653648,,,0
EA210,4382,"ST LAURENT / EASTBOURNE",,45.452721,-75.65358,,,0
EA220,4387,"ST LAURENT / MART",,45.452347,-75.653114,,,0
EA230,4383,"ST LAURENT / GLASGOW",,45.451157,-75.652618,,,0
EA240,4388,"ST LAURENT / CLAREMOUNT",,45.451057,-75.652405,,,0
EA250,8724,"ST LAURENT / HEMLOCK",,45.450047,-75.652,,,0
EA260,1580,"ST LAURENT / HEMLOCK",,45.449699,-75.651573,,,0
EA270,8934,"ST LAURENT / MEADOW",,45.448795,-75.651047,,,0
EA280,8725,"ST LAURENT / MEADOW",,45.448627,-75.651276,,,0
EA290,4390,"ST LAURENT / KAREN",,45.447243,-75.650497,,,0
EA300,4389,"ST LAURENT / KAREN",,45.447441,-75.650276,,,0
EA310,8924,"ST LAURENT / DUNBARTON",,45.445023,-75.649208,,,0
EA320,8627,"ST LAURENT / BRITTANY",,45.445606,-75.6492,,,0
EA330,4391,"ST LAURENT / AD. 505",,45.443676,-75.648476,,,0
EA340,4392,"ST LAURENT / AD. 505",,45.444431,-75.648582,,,0
EA350,1576,"ST LAURENT / MONTRÉAL",,45.44117,-75.647018,,,0
EA360,4393,"ST LAURENT / MONTRÉAL",,45.441666,-75.647034,,,0
EA370,344,"BRITTANY / ST LAURENT",,45.44595,-75.649223,,,0
EA380,1519,"BRITTANY / COLEFORD",,45.445969,-75.648239,,,0
EA390,8847,"BRITTANY / BANGS",,45.446198,-75.646446,,,0
EA400,8729,"BRITTANY / BANGS",,45.446041,-75.646164,,,0
EA410,4394,"BRITTANY / TRURO",,45.445976,-75.644302,,,0
EA420,4397,"BRITTANY / QUARRY",,45.445313,-75.643745,,,0
EA430,6126,"BRITTANY / KRISTIN",,45.444038,-75.642807,,,0
EA440,4398,"BRITTANY / KRISTIN",,45.443695,-75.642853,,,0
EA450,4396,"BRITTANY / MONTRÉAL",,45.443142,-75.642258,,,0
EA460,8730,"BRITTANY / MONTRÉAL",,45.442875,-75.642357,,,0
EA700,8835,"AVIATION MUSEUM",,45.458084,-75.645294,,,0
EB010,8734,"MONTRÉAL / CUMMINGS",,45.442909,-75.641129,,,0
EB020,1895,"MONTRÉAL / BRITTANY",,45.442623,-75.642509,,,0
EB030,8731,"MONTRÉAL / HILLSIDE",,45.442112,-75.64399,,,0
EB040,8733,"MONTRÉAL / CENTRE",,45.442055,-75.643608,,,0
EB050,8732,"MONTRÉAL / ST LAURENT",,45.441383,-75.64624,,,0
EB060,1896,"MONTRÉAL / ST LAURENT",,45.441193,-75.646317,,,0
EB070,8940,"ST LAURENT / MONTRÉAL",,45.440979,-75.646576,,,0
EB080,8602,"ST LAURENT / MORIN",,45.440067,-75.6464,,,0
EB090,1528,"ST LAURENT / MALARTIC",,45.439598,-75.645866,,,0
EB100,6690,"ST LAURENT / QUEEN E SCHOOL",,45.438194,-75.64502,,,0
EB120,8610,"ST LAURENT / CLARKE",,45.436787,-75.644249,,,0
EB130,8604,"ST LAURENT / CÔTÉ",,45.43594,-75.644119,,,0
EB140,6692,"ST LAURENT / GUY",,45.434547,-75.643333,,,0
EB150,6691,"ST LAURENT / GUY",,45.433895,-75.642601,,,0
EB180,5859,"ST LAURENT / MCARTHUR",,45.432171,-75.641953,,,0
EB191,1125,"ST LAURENT / MCARTHUR",,45.431484,-75.641327,,,0
EB200,6693,"ST LAURENT / AD. 938",,45.430607,-75.641045,,,0
EB210,6694,"ST LAURENT / DONALD",,45.429459,-75.640152,,,0
EB220,8623,"ST LAURENT / DONALD",,45.428402,-75.639862,,,0
EB230,6695,"ST LAURENT / QUEEN MARY",,45.426949,-75.639015,,,0
EB240,8852,"ST LAURENT / AD. 1055",,45.427578,-75.63903,,,0
EB250,6697,"ST LAURENT / CYRVILLE",,45.425446,-75.637825,,,0
EB260,6696,"ST LAURENT / COVENTRY",,45.425205,-75.638031,,,0
EB270,6698,"ST LAURENT / OGILVIE",,45.423664,-75.636917,,,0
EB275,1049,"ST LAURENT / LEMIEUX",,45.422737,-75.636665,,,0
EB370,8527,"OGILVIE / CYRVILLE",,45.42482,-75.634857,,,0
EB380,6699,"OGILVIE / CUMMINGS",,45.426105,-75.632164,,,0
EB385,8424,"OGILVIE / AD. 1195",,45.427135,-75.629326,,,0
EB390,3711,"OGILVIE / CUMMING",,45.426266,-75.631004,,,0
EB395,2500,"OGILVIE / BEAULIEU",,45.426975,-75.629379,,,0
EB400,8618,"DONALD / ST LAURENT",,45.429119,-75.63829,,,0
EB410,8619,"DONALD / ST LAURENT",,45.428951,-75.638702,,,0
EB420,2501,"DONALD / HENDON",,45.428852,-75.636047,,,0
EB430,2503,"DONALD / FINDON",,45.428688,-75.636063,,,0
EB440,2502,"DONALD / CUMMINGS",,45.428364,-75.633575,,,0
EB450,2504,"DONALD / CUMMINGS",,45.428204,-75.63353,,,0
EB460,8620,"CUMMINGS / DONALD",,45.429562,-75.63343,,,0
EB470,8617,"CUMMINGS / DONALD",,45.429554,-75.633659,,,0
EB480,2507,"CUMMINGS / CARON",,45.431244,-75.634514,,,0
EB490,2505,"CUMMINGS / SNOW",,45.431114,-75.634338,,,0
EB500,2508,"CUMMINGS / SHANE",,45.43248,-75.635216,,,0
EB510,2506,"CUMMINGS / SHANE",,45.432514,-75.635033,,,0
EB520,2509,"CUMMINGS / GARDENVALE",,45.434078,-75.636147,,,0
EB530,8613,"CUMMINGS / GARDENVALE",,45.434547,-75.636139,,,0
EB540,5865,"CUMMINGS / BURN",,45.436096,-75.637177,,,0
EB550,2510,"CUMMINGS / BURN",,45.436245,-75.637047,,,0
EB560,2512,"CUMMINGS / QUÉBEC",,45.437241,-75.637802,,,0
EB570,2511,"CUMMINGS / QUÉBEC",,45.437702,-75.637909,,,0
EB580,2513,"CUMMINGS / CLARKE",,45.439003,-75.638756,,,0
EB590,8621,"CUMMINGS / CLARKE",,45.439465,-75.638893,,,0
EB600,2514,"CUMMINGS / WILSON",,45.440865,-75.639671,,,0
EB610,8616,"CUMMINGS / WILSON",,45.441101,-75.6399,,,0
EB620,2516,"CUMMINGS / MONTRÉAL",,45.442699,-75.640785,,,0
EB630,2515,"CUMMINGS / MONTRÉAL",,45.442833,-75.640625,,,0
EB905,3025,"ST LAURENT 2A",,45.420677,-75.638077,,,0
EB910,3025,"ST LAURENT 1A",,45.420525,-75.637825,,,0
EB915,3025,"ST LAURENT 1B",,45.420547,-75.63752,,,0
EB945,3025,"ST LAURENT 3A",,45.420589,-75.637283,,,0
EB950,3025,"ST LAURENT 3B",,45.420547,-75.63736,,,0
EB970,3025,"ST LAURENT 4A",,45.420715,-75.638191,,,0
EB975,3025,"ST LAURENT 4B",,45.420776,-75.637962,,,0
EC010,8538,"ST LAURENT / TREMBLAY",,45.417919,-75.633888,,,0
EC040,1091,"ST LAURENT / TREMBLAY",,45.417953,-75.63372,,,0
EC050,7713,"ST LAURENT / OC TRANSPO",,45.413021,-75.631218,,,0
EC060,8894,"ST LAURENT / SHORE",,45.412994,-75.630936,,,0
EC070,5896,"ST LAURENT / BELFAST",,45.411369,-75.630295,,,0
EC080,8539,"ST LAURENT / BELFAST",,45.411457,-75.630043,,,0
EC090,1988,"ST LAURENT / INNES",,45.40728,-75.627663,,,0
EC100,8986,"ST LAURENT / INDUSTRIAL",,45.406109,-75.627335,,,0
EC120,1507,"ST LAURENT / BOURASSA",,45.404179,-75.625832,,,0
EC130,1218,"ST LAURENT / BOURASSA",,45.403568,-75.625832,,,0
EC150,2525,"ST LAURENT / LANCASTER",,45.402,-75.624504,,,0
EC200,1913,"TRIOLE / TREMBLAY",,45.418396,-75.63253,,,0
EC210,1002,"TREMBLAY / ST LAURENT",,45.417957,-75.632866,,,0
EC220,2530,"MICHAEL / PARISIEN",,45.418568,-75.630341,,,0
EC230,2526,"MICHAEL / PARISIEN",,45.418682,-75.630157,,,0
EC240,2531,"MICHAEL / KENASTON",,45.416912,-75.629433,,,0
EC250,2527,"MICHAEL / KENASTON",,45.41647,-75.628983,,,0
EC260,2532,"MICHAEL / AD. 1480",,45.414474,-75.628036,,,0
EC265,1003,"MICHAEL / BELFAST",,45.41235,-75.626846,,,0
EC270,2528,"MICHAEL / AD. 1481",,45.414951,-75.628082,,,0
EC275,2529,"MICHAEL / BELFAST",,45.412567,-75.626869,,,0
EC280,8534,"MICHAEL / NEWMARKET",,45.410236,-75.625717,,,0
EC290,1516,"MICHAEL / NEWMARKET",,45.410217,-75.625473,,,0
EC300,2533,"NEWMARKET / LIVERPOOL",,45.409409,-75.623489,,,0
EC305,2534,"NEWMARKET / BANTREE",,45.410503,-75.620895,,,0
EC310,2535,"NEWMARKET / LIVERPOOL",,45.409622,-75.62339,,,0
EC315,2536,"NEWMARKET / BANTREE",,45.410683,-75.620789,,,0
EC320,8901,"INNES / ST LAURENT",,45.406788,-75.626793,,,0
EC330,8530,"INNES / BANTREE",,45.410076,-75.620224,,,0
EC340,7854,"INNES / BANTREE",,45.410213,-75.619125,,,0
EC350,7855,"INNES / STAR TOP",,45.412399,-75.614502,,,0
EC360,8670,"STAR TOP / INNES",,45.413235,-75.614326,,,0
EC365,417,"STAR TOP /INNES",,45.413181,-75.614517,,,0
EC370,8624,"STAR TOP / AD. 1540",,45.415394,-75.615723,,,0
EC380,7856,"STAR TOP / AD. 1541",,45.415115,-75.615326,,,0
EC401,1121,"STAR TOP / ALGOMA",,45.417057,-75.616371,,,0
EC420,2537,"CYRVILLE / STAR TOP",,45.419861,-75.616928,,,0
EC430,2538,"CYRVILLE / STAR TOP",,45.42004,-75.617058,,,0
EC440,1200,"CYRVILLE / LABRIE",,45.421448,-75.622162,,,0
EC445,1203,"CYRVILLE / LABRIE",,45.421165,-75.621704,,,0
EC495,2462,"CYRVILLE / JOSEPH CYR",,45.424442,-75.634888,,,0
EC520,7714,"MICHAEL / CYRVILLE",,45.423618,-75.633102,,,0
EC530,8537,"MICHAEL / CYRVILLE",,45.4235,-75.632797,,,0
EC540,8516,"MICHAEL / LABELLE",,45.421387,-75.631897,,,0
EC550,7859,"MICHAEL / LABELLE",,45.421566,-75.631767,,,0
EC600,1195,"ALGOMA / STARTOP",,45.417217,-75.617271,,,0
EC605,1190,"ALGOMA / COMSTOCK",,45.416698,-75.619766,,,0
EC610,1191,"ALGOMA / COMSTOCK",,45.416332,-75.620522,,,0
EC615,1192,"ALGOMA / KENASTON",,45.41766,-75.62368,,,0
EC620,1193,"ALGOMA / KENASTON",,45.41824,-75.624214,,,0
EC900,3026,"CYRVILLE 2A",,45.422764,-75.626503,,,0
EC910,3026,"CYRVILLE 1A",,45.422188,-75.626717,,,0
ED030,8310,"INNES / INNES BYPASS",,45.425159,-75.581337,,,0
ED041,1520,"INNES / BLACKBURN HAMLET BYPASS",,45.425037,-75.580841,,,0
ED050,2518,"INNES / ANDERSON",,45.42289,-75.586838,,,0
ED070,8831,"INNES / BLAIR",,45.419346,-75.595078,,,0
ED080,8311,"INNES / BLAIR",,45.419186,-75.596275,,,0
ED100,2519,"INNES / STONEHENGE",,45.418133,-75.598839,,,0
ED120,8312,"INNES / STONEHENGE",,45.417553,-75.600288,,,0
ED130,2520,"INNES / STONEHENGE",,45.41716,-75.600632,,,0
ED140,8369,"CYRVILLE / MAXIME",,45.41711,-75.603607,,,0
ED142,1510,"CYRVILLE / INNES",,45.416965,-75.603622,,,0
ED150,1370,"INNES / CYRVILLE",,45.416531,-75.601944,,,0
ED160,8509,"CYRVILLE / MAXIME",,45.417198,-75.605858,,,0
ED165,2521,"CYRVILLE / MEADOWBROOK",,45.41774,-75.607994,,,0
ED170,8672,"CYRVILLE / MAXIME",,45.417076,-75.605949,,,0
ED175,2523,"CYRVILLE / MEADOWBROOK",,45.417503,-75.607651,,,0
ED180,2522,"CYRVILLE / HOME DEPOT",,45.418358,-75.610336,,,0
ED190,8671,"CYRVILLE / HOME DEPOT",,45.418076,-75.609894,,,0
ED210,8500,"MAXIME / CYRVILLE",,45.4174,-75.605072,,,0
ED220,5731,"MAXIME / RIDGEBROOK",,45.421196,-75.607033,,,0
ED240,7690,"RIDGEBROOK / MEADOWBROOK",,45.420792,-75.609314,,,0
ED270,5732,"MEADOWBROOK / EASTCLIFFE",,45.422985,-75.611603,,,0
ED290,6347,"MEADOWBROOK / BORTOLOTTI",,45.424194,-75.610611,,,0
ED300,6348,"MEADOWBROOK / MAXIME",,45.42458,-75.609306,,,0
ED360,8501,"MEADOWBROOK / AURELE",,45.425041,-75.607521,,,0
ED390,8987,"MEADOWBROOK / STONERIDGE",,45.425648,-75.605545,,,0
ED400,8502,"APPLETON / MEADOWBROOK",,45.42609,-75.603569,,,0
ED410,2022,"MEADOWBROOK / BLAIR",,45.427113,-75.6007,,,0
ED415,2023,"MEADOWBROOK / APPLETON",,45.426567,-75.603485,,,0
ED430,7696,"BEAVERPOND / HALLMARK",,45.423237,-75.601402,,,0
ED451,7697,"BLAIR / INNES",,45.419964,-75.595871,,,0
ED452,7698,"BLAIR / INNES",,45.420967,-75.596367,,,0
ED454,8514,"BLAIR / INNES",,45.421085,-75.596695,,,0
ED456,7699,"BLAIR / BEAVERPOND",,45.423,-75.597588,,,0
ED458,7700,"BLAIR / BEAVERPOND",,45.422749,-75.597656,,,0
ED460,8504,"BLAIR / BALLARD",,45.425373,-75.599167,,,0
ED470,8989,"BLAIR / AD. 1471",,45.425507,-75.598976,,,0
ED480,7701,"BLAIR  / MEADOWBROOK",,45.426846,-75.600143,,,0
ED491,1226,"BLAIR / MEADOWBROOK",,45.427551,-75.600594,,,0
EE010,989,"HÔPITAL MONTFORT HOSPITAL",,45.44511,-75.639343,,,0
EE020,8603,"MONTRÉAL / HÔPITAL MONTFORT HOSPITAL",,45.444233,-75.637894,,,0
EE030,1511,"MONTRÉAL / MONTFORT HOSPITAL",,45.444118,-75.637794,,,0
EE045,8738,"MONTRÉAL / LANGS",,45.444839,-75.635727,,,0
EE050,1565,"MONTRÉAL / DEN HAAG",,45.444702,-75.635681,,,0
EE060,4409,"MONTRÉAL / CODDS",,45.446167,-75.631691,,,0
EE070,8634,"MONTRÉAL / CARSON",,45.446022,-75.631378,,,0
EE080,8635,"MONTRÉAL / FOXVIEW",,45.446609,-75.629677,,,0
EE091,6925,"MONTRÉAL / HOCHELAGA",,45.446835,-75.628166,,,0
EE100,4412,"MONTRÉAL / BATHGATE",,45.447338,-75.625961,,,0
EE110,4411,"MONTRÉAL / BATHGATE",,45.447147,-75.624672,,,0
EE112,832,"MONTRÉAL / NRC",,45.44669,-75.618698,,,0
EE115,8636,"MONTRÉAL / NRC",,45.446785,-75.618492,,,0
EE120,8640,"MONTRÉAL / BLAIR",,45.446621,-75.615898,,,0
EE280,8637,"CARSONS / MONTRÉAL",,45.445812,-75.630997,,,0
EE300,4424,"CARSONS / BERMUDA",,45.443939,-75.629875,,,0
EE302,xxxx,"SAMUEL GENEST",,45.443367,-75.629311,,,0
EE305,467,"DEN HAAG / MONTRÉAL",,45.444107,-75.635521,,,0
EE315,468,"DEN HAAG / CARWOOD",,45.442253,-75.634232,,,0
EE320,4425,"CARSON / CHARLESWOOD",,45.442856,-75.629211,,,0
EE325,469,"DEN HAAG / BOREALIS",,45.440899,-75.633369,,,0
EE335,470,"DEN HAAG / MERGANSER",,45.43964,-75.632217,,,0
EE345,471,"DEN HAAG / CARSONS",,45.441032,-75.627525,,,0
EE350,4426,"DEN HAAG / LA CITÉ",,45.440887,-75.627457,,,0
EE355,472,"DEN HAAG / MERGANSER",,45.439594,-75.631294,,,0
EE360,3583,"DEN HAAG / BATHGATE PARK",,45.441296,-75.625526,,,0
EE365,473,"DEN HAAG / BOREALIS",,45.440826,-75.633575,,,0
EE370,1582,"DEN HAAG / PARC BATHGATE",,45.441223,-75.625183,,,0
EE375,474,"DEN HAAG / CARWOOD",,45.442184,-75.634438,,,0
EE381,8631,"BATHGATE / DEN HAAG",,45.441589,-75.622711,,,0
EE385,475,"DEN HAAG / MONTRÉAL",,45.444138,-75.63575,,,0
EE390,4675,"BATHGATE / DEN HAAG",,45.441429,-75.622856,,,0
EE400,4430,"BATHGATE / PLUMBER",,45.440075,-75.622047,,,0
EE410,8632,"BATHGATE / PLUMBER",,45.440235,-75.621941,,,0
EE440,8828,"BATHGATE / MATHESON",,45.436649,-75.620064,,,0
EE450,8826,"BATHGATE / MATHESON",,45.436565,-75.619759,,,0
EE460,4431,"BATHGATE / RAINBOW",,45.434967,-75.619057,,,0
EE470,4432,"BATHGATE / RAINBOW",,45.434875,-75.618767,,,0
EE480,4433,"BATHGATE / OGILVIE",,45.432213,-75.618042,,,0
EE490,8525,"PLUMBER / CLOSSE",,45.438869,-75.62471,,,0
EE500,8523,"PLUMBER / CLOSSE",,45.438656,-75.624931,,,0
EE510,4436,"CHARLTON / PLUMBER",,45.437469,-75.627495,,,0
EE520,4434,"CHARLTON / PLUMBER",,45.437263,-75.627586,,,0
EE530,4435,"CHARLTON / ALLOWAY",,45.436684,-75.627106,,,0
EE540,4437,"CHARLTON / ALLOWAY",,45.436619,-75.626801,,,0
EE550,8526,"CHARLTON / MATHESON",,45.434841,-75.625946,,,0
EE555,3316,"CHARLTON / MATHESON",,45.434872,-75.625565,,,0
EE570,4439,"MATHESON / ALBORO",,45.435593,-75.623329,,,0
EE580,8522,"MATHESON / ALBORO",,45.435837,-75.623222,,,0
EE590,1400,"MATHESON / BATHGATE",,45.436825,-75.620667,,,0
EE634,1238,"OGILVIE / AVIATION",,45.427872,-75.62751,,,0
EE640,4440,"OGILVIE / PALMERSTON",,45.429256,-75.62413,,,0
EE645,8521,"OGILVIE / AVIATION",,45.428085,-75.626282,,,0
EE650,4442,"OGILVIE / PALMERSTON",,45.42939,-75.623146,,,0
EE660,4441,"OGILVIE / CADBORO",,45.430458,-75.62117,,,0
EE670,4443,"OGILVIE / CADBORO",,45.430626,-75.620071,,,0
EE680,1980,"OGILVIE / BATHGATE",,45.431622,-75.618294,,,0
EE690,8513,"OGILVIE / CITY PARK",,45.431866,-75.617302,,,0
EE695,4444,"OGILVIE / AD. 1820",,45.43261,-75.615463,,,0
EE698,8661,"OGILVIE / AD. 1820",,45.432213,-75.616753,,,0
EE700,4445,"OGILVIE / CITY PARK",,45.433456,-75.613686,,,0
EE705,1927,"CITY PARK / OGILVIE",,45.433292,-75.613106,,,0
EE710,4446,"CITY PARK / OGILVIE",,45.433289,-75.612907,,,0
EE725,1841,"CITY PARK /  AD. 2280",,45.430958,-75.612503,,,0
EE728,4447,"CITY PARK / HARPER",,45.429066,-75.614677,,,0
EE730,1778,"CITY PARK /  AD. 2280",,45.431068,-75.612091,,,0
EE735,4448,"CITY PARK / HARPER",,45.4296,-75.616241,,,0
EE740,4449,"CITY PARK / AD. 1990",,45.42881,-75.615257,,,0
EE745,4450,"CITY PARK / JOBIN",,45.430088,-75.616837,,,0
EE750,4451,"CITY PARK / OGILVIE",,45.431454,-75.617722,,,0
EE766,744,"OGILVIE / CITY PARK",,45.434002,-75.611969,,,0
EE771,743,"OGILVIE / CITY PARK",,45.434322,-75.611526,,,0
EE900,3027,"BLAIR 1A",,45.430862,-75.608589,,,0
EE905,3027,"BLAIR 1B",,45.431122,-75.608139,,,0
EE915,3027,"BLAIR 2A",,45.431194,-75.608383,,,0
EE920,3027,"BLAIR 3A",,45.430866,-75.608971,,,0
EE930,3027,"BLAIR 3B",,45.431213,-75.608543,,,0
EE940,3027,"BLAIR 3C",,45.431568,-75.608055,,,0
EE960,3027,"BLAIR 4A",,45.431847,-75.608002,,,0
EF001,549,"KENDER / OGILVIE",,45.45602,-75.599037,,,0
EF002,550,"OGILVIE / KENDER",,45.455822,-75.59893,,,0
EF003,3653,"OGILVIE / KENDER",,45.455921,-75.599068,,,0
EF020,8776,"OGILVIE / EASTVALE",,45.45232,-75.596718,,,0
EF030,8908,"OGILVIE / LASSITER",,45.451202,-75.596512,,,0
EF050,7951,"OGILVIE / LASSITER",,45.45002,-75.59581,,,0
EF060,8782,"OGILVIE / NASKAPI",,45.449558,-75.595703,,,0
EF070,7950,"OGILVIE / NASKAPI",,45.448769,-75.594872,,,0
EF080,8700,"OGILVIE / MONTRÉAL",,45.448021,-75.594696,,,0
EF200,8654,"WICK / COXFORD",,45.452915,-75.611641,,,0
EF220,8827,"SWANS / WREN",,45.453495,-75.614258,,,0
EF230,8829,"SWANS / WHIPPOORWILL",,45.453842,-75.61618,,,0
EF250,8830,"SWANS / BLAIR",,45.453182,-75.618477,,,0
EF260,8639,"BLAIR / MONTRÉAL",,45.446896,-75.615448,,,0
EF265,1789,"BLAIR / MONTRÉAL",,45.446922,-75.615242,,,0
EF270,8842,"BLAIR / NICOL",,45.448254,-75.616219,,,0
EF280,8843,"BLAIR / NICOL",,45.448406,-75.616112,,,0
EF290,8833,"BLAIR / DAVIDSON",,45.449791,-75.617073,,,0
EF300,8846,"BLAIR / DAVIDSON",,45.449879,-75.616898,,,0
EF310,8848,"BLAIR / SWANS",,45.452805,-75.618439,,,0
EF315,1783,"BLAIR / SWANS",,45.453735,-75.619019,,,0
EF320,8180,"BLAIR / BRIARCLIFF",,45.458561,-75.621635,,,0
EF330,8865,"BLAIR / MASSEY",,45.460205,-75.622543,,,0
EF340,8886,"MASSEY / REBECCA",,45.46096,-75.616554,,,0
EF360,8181,"DELONG / MASSEY",,45.46088,-75.61396,,,0
EF370,8915,"DELONG / COMBERMERE",,45.460037,-75.61348,,,0
EF380,8919,"DELONG / REBECCA",,45.458149,-75.612404,,,0
EF390,8182,"DELONG / KAYMAR",,45.456711,-75.610245,,,0
EF400,8923,"DELONG / ORIOLE",,45.454666,-75.609108,,,0
EF410,8942,"ROTHWELL / DELONG",,45.451973,-75.608643,,,0
EF420,8943,"ROTHWELL / WICK",,45.451084,-75.607788,,,0
EF430,8189,"LA VERENDRYE / OGILVIE",,45.452919,-75.597427,,,0
EF440,8707,"LA VERENDRYE / OGILVIE",,45.452988,-75.597847,,,0
EF450,2562,"LA VERENDRYE / GATINEAU VIEW",,45.452534,-75.601036,,,0
EF460,2540,"LA VERENDRYE / GATINEAU VIEW",,45.452541,-75.601677,,,0
EF470,2542,"LA VERENDRYE / DEERHURST",,45.453129,-75.603333,,,0
EF480,2541,"LA VERENDRYE / GATINEAU VIEW",,45.453217,-75.604202,,,0
EF490,2543,"LA VERENDRYE / THOMAS D'ARCY MCGEE SCHOOL",,45.45443,-75.605255,,,0
EF500,8708,"LA VERENDRYE / MELDRUM",,45.455616,-75.605858,,,0
EF510,8188,"LA VERENDRYE / OAKDEAN",,45.456841,-75.606094,,,0
EF520,2544,"LA VERENDRYE / GLENFERN",,45.457485,-75.605881,,,0
EF530,2545,"LA VERENDRYE / KINGS GROVE",,45.459873,-75.607109,,,0
EF540,2547,"LA VERENDRYE / OAKDEAN",,45.460217,-75.607552,,,0
EF550,2546,"LA VERENDRYE / QUINCY",,45.460739,-75.607582,,,0
EF560,8709,"QUINCY / RIVERSHORE",,45.461243,-75.606209,,,0
EF570,2549,"QUINCY / RIVERSHORE",,45.461411,-75.606049,,,0
EF580,2548,"QUINCY / OGILVIE",,45.461514,-75.603233,,,0
EF590,8704,"EASTVALE / OGILVIE",,45.460831,-75.601868,,,0
EF600,8187,"EASTVALE / FILLMORE",,45.460964,-75.601685,,,0
EF610,2551,"EASTVALE / FILLMORE",,45.460999,-75.596939,,,0
EF620,2550,"EASTVALE / FILLMORE",,45.460773,-75.596947,,,0
EF630,8710,"EASTVALE / CASEY",,45.459614,-75.596313,,,0
EF640,8186,"EASTVALE / CASEY",,45.459351,-75.596008,,,0
EF650,4991,"EASTVALE / KENDER",,45.457752,-75.595116,,,0
EF660,2552,"EASTVALE / KENDER",,45.457085,-75.595062,,,0
EF670,2553,"EASTVALE / GRAFTON",,45.455276,-75.594719,,,0
EF680,2557,"EASTVALE / GRAFTON",,45.455292,-75.594475,,,0
EF690,2554,"EASTVALE / HUBBARD",,45.453884,-75.593971,,,0
EF700,2558,"EASTVALE / HUBBARD",,45.454025,-75.593803,,,0
EF710,2555,"EASTVALE / LOYOLA",,45.452423,-75.593842,,,0
EF720,8948,"LOYOLA / EASTVALE",,45.452122,-75.592987,,,0
EF730,8185,"LOYOLA / DE SALABERRY",,45.452614,-75.590691,,,0
EF740,8457,"LOYOLA / DE SALABERRY",,45.452419,-75.590797,,,0
EF745,2403,"SHEFFORD / MONTREAL",,45.451622,-75.589165,,,0
EF755,1088,"SHEFFORD / CANOTEK",,45.452614,-75.58947,,,0
EF855,2559,"CANOTEK / SHEFFORD",,45.452301,-75.588425,,,0
EF860,2560,"CANOTEK / RAINBOW",,45.452682,-75.586975,,,0
EF862,2561,"CANOTEK / AD. 5350",,45.453945,-75.584702,,,0
EF865,8378,"CANOTEK / AD. 5370",,45.455479,-75.583206,,,0
EF870,8449,"CANOTEK / RAINBOW",,45.452888,-75.586563,,,0
EF872,8434,"CANOTEK / AD. 5350",,45.454144,-75.584824,,,0
EF875,8406,"CANOTEK / AD. 5369",,45.455536,-75.583412,,,0
EF880,8375,"CANOTEK / AD. 5420",,45.45715,-75.581635,,,0
EF882,5661,"CANOTEK / AD. 5480",,45.458916,-75.582848,,,0
EF885,8395,"CANOTEK / AD. 5510",,45.457443,-75.584351,,,0
EG001,1920,"R.R. 174 / MONTRÉAL",,45.45121,-75.584732,,,0
EG002,8757,"MONTRÉAL / R.R. 174",,45.45097,-75.585197,,,0
EG003,8728,"MONTRÉAL / R.R. 174",,45.450859,-75.585121,,,0
EG004,2369,"ST JOSEPH  / R.R. 174",,45.451763,-75.582191,,,0
EG005,1949,"MONTRÉAL / SHEFFORD",,45.450161,-75.58786,,,0
EG006,2461,"REGIONAL ROAD 174 / MONTREAL",,45.45187,-75.582489,,,0
EG007,5682,"ST JOSEPH  / R.R. 174",,45.451847,-75.58242,,,0
EG010,1539,"MONTRÉAL / SHEFFORD",,45.449856,-75.588692,,,0
EG020,8702,"MONTRÉAL / SHEFFORD",,45.449928,-75.587723,,,0
EG030,2563,"MONTRÉAL / MISS OTTAWA",,45.44838,-75.592079,,,0
EG040,7952,"MONTRÉAL / SINCLAIR",,45.448624,-75.591026,,,0
EG045,7953,"MONTRÉAL / LAPORTE",,45.447498,-75.593575,,,0
EG050,8703,"MONTRÉAL / OGILVIE",,45.447025,-75.59507,,,0
EG060,8649,"MONTRÉAL / OGILVIE",,45.446632,-75.595421,,,0
EG070,2564,"MONTRÉAL / AD. 2038",,45.446293,-75.596779,,,0
EG080,2566,"MONTRÉAL / BETHAMY",,45.445564,-75.597977,,,0
EG090,2565,"MONTRÉAL / FOXBOROUGH",,45.445518,-75.598885,,,0
EG100,8650,"MONTRÉAL / MARQUIS PARK",,45.445278,-75.600388,,,0
EG110,2567,"MONTRÉAL / BETHAMY",,45.445042,-75.60025,,,0
EG120,2571,"MONTRÉAL / ELMSMERE",,45.445278,-75.603043,,,0
EG125,2572,"MONTRÉAL / AD. 1777",,45.44569,-75.60704,,,0
EG130,2568,"MONTRÉAL / ELMSMERE",,45.445168,-75.603851,,,0
EG135,2569,"MONTRÉAL / AD. 1777",,45.445499,-75.606804,,,0
EG140,2573,"MONTRÉAL / BECKENHAM",,45.44606,-75.609428,,,0
EG150,2570,"MONTRÉAL / ELWOOD",,45.4459,-75.609978,,,0
EG160,8648,"MONTRÉAL / CLOVELLY",,45.446198,-75.611099,,,0
EG170,2574,"MONTRÉAL / BLAIR",,45.446384,-75.613075,,,0
EG180,8647,"MONTRÉAL / BLAIR",,45.446247,-75.613945,,,0
EG190,8748,"BLAIR / MONTRÉAL",,45.445858,-75.614632,,,0
EG200,8746,"BLAIR / SEGUIN",,45.444809,-75.61412,,,0
EG220,8691,"MOWAT / BLAIR",,45.442513,-75.612602,,,0
EG230,8622,"MOWAT / ELVINA",,45.442913,-75.61116,,,0
EG240,8593,"MOWAT / STEEL",,45.442024,-75.608887,,,0
EG250,8642,"STEEL / CROWNHILL",,45.442043,-75.608238,,,0
EG260,8644,"ELWOOD / MONTRÉAL",,45.445572,-75.610535,,,0
EG280,8507,"CROWNHILL / SUMAC",,45.443794,-75.608704,,,0
EG310,2340,"CROWNHILL / STEEL",,45.44178,-75.607643,,,0
EG320,8592,"CROWNHILL / APPLEFORD",,45.440105,-75.60659,,,0
EG330,8645,"CROWNHILL / APPLEFORD",,45.439621,-75.606461,,,0
EG340,8553,"CROWNHILL / DUNHAM",,45.437263,-75.606674,,,0
EG350,8646,"CROWNHILL / DUNHAM",,45.437057,-75.60688,,,0
EG360,8554,"CROWNHILL / BLAIR",,45.436413,-75.609375,,,0
EG370,8542,"BLAIR / CROWNHILL",,45.436169,-75.609413,,,0
EG380,8659,"BLAIR / OGILVIE",,45.435692,-75.609474,,,0
EG390,3556,"OGILVIE / BLAIR",,45.435493,-75.608124,,,0
EG400,5821,"OGILVIE / DUNHAM",,45.436337,-75.606667,,,0
EG410,8658,"OGILVIE / DUNHAM",,45.436314,-75.605988,,,0
EG420,8665,"OGILVIE / ELMLEA",,45.43755,-75.603088,,,0
EG430,1563,"OGILVIE / ELMLEA",,45.437634,-75.603447,,,0
EG460,2576,"OGILVIE / AD. 2020",,45.438354,-75.601189,,,0
EG465,2577,"OGILVIE / APPLEFORD",,45.439804,-75.598396,,,0
EG500,2578,"OGILVIE / AD. 1901",,45.441277,-75.597214,,,0
EG510,3557,"OGILVIE / ELMRIDGE",,45.442593,-75.597519,,,0
EG520,2579,"OGILVIE / JASMINE",,45.442696,-75.597168,,,0
EG530,1975,"OGILVIE / L B PEARSON H.S.",,45.444393,-75.595734,,,0
EG550,8706,"OGILVIE / MONTRÉAL",,45.446732,-75.594048,,,0
EG560,8699,"OGILVIE / MONTRÉAL",,45.44606,-75.593613,,,0
EG570,8656,"JASMINE / OGILVIE",,45.44286,-75.596306,,,0
EG575,8657,"JASMINE / OGILVIE",,45.442532,-75.595871,,,0
EG580,2583,"JASMINE / BEAVERHILL",,45.441582,-75.594925,,,0
EG590,2580,"JASMINE / BEAVERHILL",,45.441471,-75.594604,,,0
EG600,2584,"JASMINE / ARROWSMITH",,45.439941,-75.59494,,,0
EG610,2581,"JASMINE / ARROWSMITH",,45.439709,-75.594849,,,0
EG620,2585,"JASMINE / OGILVIE",,45.439823,-75.597816,,,0
EG630,2582,"JASMINE / OGILVIE",,45.439632,-75.597809,,,0
EH002,8982,"BEARBROOK / MONTRÉAL",,45.45248,-75.575127,,,0
EH004,8192,"BEARBROOK / ST JOSEPH",,45.452076,-75.575005,,,0
EH006,8981,"BEARBROOK / LAFARGE ASPHALT",,45.44648,-75.57737,,,0
EH008,5612,"BEARBROOK / LAFARGE ASPHALT",,45.446793,-75.577324,,,0
EH009,2590,"BEARBROOK / HORNET'S NEST PARK",,45.444328,-75.575996,,,0
EH010,2591,"BEARBROOK / HORNET'S NEST PARK",,45.443405,-75.575516,,,0
EH012,2586,"BEARBROOK / WESTPARK",,45.440403,-75.570374,,,0
EH013,512,"E.S. LOUIS RIEL",,45.440392,-75.570259,,,0
EH015,2587,"BEARBROOK / HORNET'S NEST PARK",,45.444744,-75.576416,,,0
EH016,2588,"BEARBROOK / HORNET'S NEST PARK",,45.443226,-75.575607,,,0
EH019,3658,"BEARBROOK / WESTPARK",,45.440285,-75.570412,,,0
EH020,2589,"BEARBROOK / WESTPARK",,45.440273,-75.57016,,,0
EH040,8687,"WESTPARK / VALEWOOD",,45.43919,-75.571648,,,0
EH050,8689,"WESTPARK / VALEWOOD",,45.438831,-75.572968,,,0
EH060,1161,"WESTPARK / PARKRIDGE",,45.437767,-75.573883,,,0
EH070,1162,"WESTPARK / PARKRIDGE",,45.437656,-75.573692,,,0
EH080,2592,"WESTPARK / PARKRIDGE",,45.435719,-75.574142,,,0
EH090,8686,"WESTPARK / PARKRIDGE",,45.43597,-75.574028,,,0
EH100,8690,"WESTPARK / PARKWOOD",,45.435398,-75.572517,,,0
EH110,2593,"WESTPARK / PARKWOOD",,45.43552,-75.572105,,,0
EH120,8688,"WESTPARK / HIGHPARK",,45.437603,-75.57029,,,0
EH130,2594,"WESTPARK / HIGHPARK",,45.437424,-75.570221,,,0
EH140,8676,"WESTPARK / BEARBROOK",,45.438198,-75.568275,,,0
EH150,2595,"WESTPARK / BEARBROOK",,45.438133,-75.567909,,,0
EH160,8693,"BEARBROOK / CENTREPARK",,45.436581,-75.567215,,,0
EH170,8692,"BEARBROOK / CENTREPARK",,45.436569,-75.567116,,,0
EH180,8936,"BEARBROOK / CENTREPARK",,45.434204,-75.566017,,,0
EH270,8684,"NORTHPARK / BEARBROOK",,45.43531,-75.566307,,,0
EH280,8695,"NORTHPARK / BEARBROOK",,45.435238,-75.565948,,,0
EH290,2600,"NORTHPARK / BURNVIEW",,45.435513,-75.564201,,,0
EH300,2602,"NORTHPARK / RIDGEBURN",,45.435776,-75.563423,,,0
EH310,2601,"RIDGEBURN / DICEMAN",,45.435745,-75.561119,,,0
EH320,8196,"RIDGEBURN / EASTPARK",,45.435711,-75.560173,,,0
EH330,8195,"EASTPARK / BEECHMONT",,45.437962,-75.56002,,,0
EH340,2603,"EASTPARK / BEECHMONT",,45.437851,-75.560051,,,0
EH350,2606,"EASTPARK / OAKHURST",,45.438133,-75.557999,,,0
EH360,2604,"EASTPARK / OAKHURST",,45.438095,-75.558037,,,0
EH370,2605,"EASTPARK / RED MAPLE",,45.436985,-75.555038,,,0
EH380,2607,"EASTPARK / REDMAPLE",,45.437008,-75.554878,,,0
EH390,2608,"EASTPARK / INNES",,45.436104,-75.554367,,,0
EH400,8952,"INNES / RONDEL",,45.435619,-75.554504,,,0
EH410,1522,"INNES / EASTPARK",,45.435791,-75.554626,,,0
EH420,2609,"INNES / EASTPARK",,45.434505,-75.557816,,,0
EH430,8197,"INNES / EASTPARK",,45.434395,-75.55764,,,0
EH441,8683,"INNES / ORIENT PARK",,45.433605,-75.560066,,,0
EH450,8199,"INNES / ORIENT PARK",,45.43346,-75.559944,,,0
EH456,2610,"INNES / INNES ROAD PLAZA",,45.432594,-75.562027,,,0
EH458,2612,"INNES / BEARBROOK",,45.432758,-75.562164,,,0
EH460,2611,"INNES / BEARBROOK",,45.431908,-75.563766,,,0
EH480,8928,"INNES / BEARBROOK",,45.431488,-75.565269,,,0
EH493,5927,"BLACKBURN ARENA",,45.429832,-75.564072,,,0
EH500,8682,"INNES / BEDDOE",,45.430328,-75.567764,,,0
EH510,8799,"INNES / GRAVELLE",,45.430393,-75.568047,,,0
EH525,1866,"INNES / PEPIN",,45.427593,-75.574509,,,0
EH530,2613,"INNES / TAUVETTE",,45.428452,-75.572411,,,0
EH535,2614,"INNES / TAUVETTE",,45.428268,-75.573257,,,0
EH550,8678,"TAUVETTE / INNES",,45.42868,-75.572945,,,0
EH570,2615,"TAUVETTE / AD. 19",,45.430649,-75.574013,,,0
EH590,2616,"TAUVETTE / SOUTHPARK",,45.432549,-75.575043,,,0
EH600,8679,"SOUTHPARK / TAUVETTE",,45.432983,-75.574341,,,0
EH620,2618,"SOUTHPARK / WOODVIEW",,45.433372,-75.571434,,,0
EH630,2619,"SOUTHPARK / WOODBURN",,45.432362,-75.569603,,,0
EH650,8025,"SOUTHPARK / INNES",,45.431358,-75.566917,,,0
EH700,765,"RENAUD / ANDERSON",,45.419662,-75.567177,,,0
EH705,766,"ANDERSON / WEIR",,45.419804,-75.568039,,,0
EH710,1015,"RENAUD / MAURICE",,45.421005,-75.559669,,,0
EH715,1013,"RENAUD / MAURICE",,45.421062,-75.560211,,,0
EI020,8191,"ST JOSEPH / BEARBROOK",,45.453869,-75.574066,,,0
EI030,8990,"ST JOSEPH / BEARBROOK",,45.453041,-75.576393,,,0
EI040,2630,"ST JOSEPH / AD. 1300",,45.455578,-75.570793,,,0
EI050,2633,"ST JOSEPH / AD. 1207",,45.455769,-75.571007,,,0
EI060,2631,"ST JOSEPH / HART",,45.456329,-75.569397,,,0
EI070,2634,"ST JOSEPH / HART",,45.456814,-75.569016,,,0
EI080,2635,"ST JOSEPH / AD. 1360",,45.458038,-75.565941,,,0
EI085,2632,"ST JOSEPH / AD. 1360",,45.457859,-75.565712,,,0
EI090,8194,"ST JOSEPH / RCMP",,45.458725,-75.564102,,,0
EI095,8193,"ST JOSEPH / RCMP",,45.458843,-75.562859,,,0
EI100,2636,"ST JOSEPH / AD. 1533",,45.459751,-75.56089,,,0
EI110,2638,"ST JOSEPH / AD. 1533",,45.459587,-75.560646,,,0
EI140,2637,"ST JOSEPH / GOLDEN VALLEY",,45.460762,-75.553253,,,0
EI150,2639,"ST JOSEPH / AD. 1510",,45.460499,-75.553169,,,0
EI160,2640,"ST JOSEPH / FOREST VALLEY",,45.461327,-75.548805,,,0
EI180,8120,"ST JOSEPH / YOUVILLE",,45.461731,-75.547668,,,0
EI190,8100,"ST JOSEPH / AD. 1820",,45.461704,-75.546623,,,0
EI200,2641,"ST JOSEPH / NOTRE DAME",,45.462563,-75.543938,,,0
EI210,2643,"ST JOSEPH / NOTRE DAME",,45.462383,-75.543777,,,0
EI220,2642,"ST JOSEPH / MARENGER",,45.463165,-75.542519,,,0
EI230,2644,"ST JOSEPH / MARENGER",,45.463356,-75.541664,,,0
EI240,8463,"ST JOSEPH / JEANNE D'ARC",,45.46402,-75.540726,,,0
EI241,9058,"RENAUD / PAGE",,45.429958,-75.51683,,,0
EI242,9059,"RENAUD / PAGE",,45.429813,-75.516708,,,0
EI244,9060,"RENAUD / SADDLERIDGE",,45.429161,-75.518608,,,0
EI246,9061,"RENAUD / SADDLERIDGE",,45.429073,-75.518532,,,0
EI248,9062,"RENAUD / PERCIFOR",,45.427238,-75.523193,,,0
EI249,5936,"PAGE / NAVAN",,45.429943,-75.517418,,,0
EI250,9063,"RENAUD / JOSHUA",,45.426796,-75.523888,,,0
EI252,5928,"SADDLERIDGE / ROLLING MEADOWS",,45.428085,-75.518105,,,0
EI257,5934,"SADDLERIDGE / DOVEHAVEN",,45.426449,-75.51712,,,0
EI260,7735,"INNES / PAGÉ",,45.446922,-75.526497,,,0
EI262,5931,"JOSHUA / KEITH",,45.425713,-75.521584,,,0
EI263,379,"PAGE / BUTTONFIELD",,45.445183,-75.526306,,,0
EI264,391,"PAGE / INNES",,45.446415,-75.527283,,,0
EI265,3310,"PAGÉ / SILVERBIRCH",,45.442516,-75.524963,,,0
EI266,3365,"PAGE / SILVERBIRCH",,45.442669,-75.524803,,,0
EI267,392,"PAGE / CREEK CROSSING",,45.438889,-75.522797,,,0
EI268,2081,"PAGÉ / NATURE TRAIL",,45.438988,-75.522606,,,0
EI272,2645,"INNES / ORLÉANS",,45.444668,-75.53257,,,0
EI280,1504,"INNES / AD. 3386",,45.444801,-75.531425,,,0
EI290,2646,"INNES / DU CLAIRVAUX PATHWAY-SENTIER",,45.4426,-75.537956,,,0
EI295,1089,"INNES / DU CLAIRVAUX PATHWAY",,45.442326,-75.537552,,,0
EI300,1503,"INNES / INNES BYPASS",,45.440056,-75.543831,,,0
EI305,1735,"INNES / INNES BYPASS",,45.440052,-75.543304,,,0
EI310,2647,"INNES / CLEROUX",,45.438824,-75.546906,,,0
EI320,2649,"INNES / CLEROUX",,45.438873,-75.546379,,,0
EI330,2648,"INNES / KEYSTONE",,45.438084,-75.548706,,,0
EI340,2650,"INNES / KEYSTONE",,45.438053,-75.548393,,,0
EI351,1521,"INNES / CLEROUX",,45.437141,-75.551163,,,0
EI360,8198,"INNES / CLEROUX",,45.436527,-75.552162,,,0
EI390,2439,"ORLEANS / PINEGLADE",,45.44276,-75.530556,,,0
EI395,2445,"ORLEANS / CRESTMONT",,45.44286,-75.530312,,,0
EI400,2651,"ORLEANS / INNES",,45.443733,-75.53257,,,0
EI405,2453,"ORLEANS / INNES",,45.444118,-75.532478,,,0
EI455,1397,"NAVAN / AD. 2878",,45.433273,-75.527756,,,0
EI465,1396,"NAVAN / AD. 2878",,45.433128,-75.52774,,,0
EI470,2653,"NAVAN / TOPSOIL",,45.431396,-75.522034,,,0
EI480,2655,"NAVAN / TOPSOIL",,45.431194,-75.521683,,,0
EI490,8018,"PAGE / NAVAN",,45.430813,-75.517944,,,0
EI500,8127,"PAGÉ / NAVAN",,45.431019,-75.517807,,,0
EI510,8136,"PAGE / AD. 2738",,45.432686,-75.519058,,,0
EI520,2656,"PAGE / AD. 2741",,45.432537,-75.518753,,,0
EI530,2661,"PAGE / AD. 2650",,45.434013,-75.519882,,,0
EI535,2659,"PAGE / MONPELLIER",,45.436249,-75.521187,,,0
EI540,2657,"PAGE / AD. 2683",,45.434113,-75.519714,,,0
EI545,2658,"PAGE / NATURE TRAIL",,45.436771,-75.521355,,,0
EI611,1738,"MEADOWGLEN / ORLÉANS",,45.446918,-75.534866,,,0
EI612,7733,"MEADOWGLEN / WINDFLOWER",,45.446575,-75.535591,,,0
EI613,7732,"MEADOWGLEN / DU CLAIRVAUX",,45.445438,-75.53952,,,0
EI615,7715,"MEADOWGLEN / WINDFLOWER",,45.446384,-75.536575,,,0
EI616,7861,"MEADOWGLEN / MONTEREAU",,45.445457,-75.540535,,,0
EI618,7731,"MEADOWGLEN / WILLOWBARK",,45.447716,-75.542809,,,0
EI619,7717,"MEADOWGLEN / WILLOWBARK",,45.447441,-75.542458,,,0
EI620,7718,"MEADOWGLEN / MEADOWFIELD",,45.449646,-75.543213,,,0
EI630,7730,"MEADOWGLEN / MEADOWHILL",,45.450512,-75.543434,,,0
EI640,7719,"MEADOWGLEN / FOREST VALLEY",,45.452477,-75.540733,,,0
EI650,7864,"FORESTVALLEY / MEADOWGLEN",,45.452946,-75.540878,,,0
EI660,7729,"FOREST VALLEY / RIDGELEA",,45.45459,-75.54187,,,0
EI670,823,"FOREST VALLEY / RIDGELEA",,45.454571,-75.541672,,,0
EI680,7728,"FORESTVALLEY / FORESTGLEN",,45.457184,-75.541969,,,0
EI690,7720,"FORESTVALLEY / RIVERMILL",,45.457588,-75.541809,,,0
EI700,866,"FORESTVALLEY / AD. 1402",,45.458359,-75.545746,,,0
EI710,7721,"FOREST VALLEY  / AD. 1401",,45.458477,-75.545898,,,0
EI720,1736,"YOUVILLE / ST JOSEPH",,45.46199,-75.5495,,,0
EI730,1737,"YOUVILLE / ST JOSEPH",,45.461769,-75.54921,,,0
EI740,7726,"YOUVILLE / AD. 1420",,45.463734,-75.550438,,,0
EI750,7722,"YOUVILLE / AD. 1420",,45.46386,-75.550285,,,0
EI760,7725,"YOUVILLE / AD. 1490",,45.465107,-75.54895,,,0
EI770,7723,"YOUVILLE / VOYAGEUR",,45.464973,-75.548866,,,0
EI780,7863,"YOUVILLE / JEANNE D'ARC",,45.465778,-75.543182,,,0
EI790,7724,"YOUVILLE / JEANNE D'ARC",,45.46566,-75.543076,,,0
EI800,6340,"CREEK CROSSING / PAGE",,45.438297,-75.52282,,,0
EI801,3617,"ORLÉANS / NAVAN",,45.433823,-75.531105,,,0
EI803,3307,"ORLÉANS / DES GRAND CHAMPS",,45.434612,-75.530838,,,0
EI805,6341,"CREEK CROSSING / ROLLING BROOK",,45.438255,-75.523529,,,0
EI806,3306,"ORLÉANS / DES GRAND CHAMPS",,45.435795,-75.529129,,,0
EI807,3618,"ORLEANS / BLUE WILLOW",,45.435303,-75.529518,,,0
EI808,6339,"CREEK CROSSING / ORLÉANS",,45.437595,-75.52636,,,0
EI809,3619,"ORLEANS / BLUE WILLOW",,45.436432,-75.527786,,,0
EI810,6333,"ORLEANS / CREEK CROSSING",,45.438114,-75.526711,,,0
EI811,3305,"ORLÉANS / LONGLEAF",,45.43755,-75.526955,,,0
EI815,6325,"LONGLEAF / ORLÉANS",,45.437733,-75.527359,,,0
EI820,6326,"LONGLEAF / VALLEYWOOD",,45.438637,-75.53019,,,0
EI830,6332,"LONGLEAF / APPLE LEAF",,45.438503,-75.530235,,,0
EI835,6327,"LONGLEAF / SHAKEWOOD",,45.439957,-75.530907,,,0
EI840,6331,"LONGLEAF / MONTCLAIR",,45.440319,-75.531326,,,0
EI845,6328,"LONGLEAF / GLADEWOODS",,45.441399,-75.53096,,,0
EI850,6330,"LONGLEAF / GLADEWOODS",,45.441319,-75.531204,,,0
EI855,6329,"LONGLEAF / PINEGLADE",,45.441982,-75.529953,,,0
EI860,6334,"ORLÉANS / VALLEYWOOD PATHWAY",,45.439461,-75.527405,,,0
EI865,6338,"ORLÉANS / VALLEYWOOD",,45.438972,-75.527298,,,0
EI870,6337,"ORLÉANS / OAKBROOK",,45.440247,-75.528046,,,0
EI875,6335,"ORLÉANS / SILVERBIRCH",,45.441441,-75.528557,,,0
EI880,6336,"ORLÉANS / LONGLEAF",,45.44194,-75.52919,,,0
EJ030,1765,"PLACE D'ORLÉANS / ROCQUE",,45.476604,-75.519707,,,0
EJ040,7800,"PLACE D'ORLÉANS / ROCQUE",,45.476837,-75.519638,,,0
EJ045,7799,"PLACE D'ORLÉANS / ST JOSEPH",,45.475239,-75.51796,,,0
EJ070,8114,"ST JOSEPH / GABRIEL",,45.474628,-75.518303,,,0
EJ090,1768,"ST JOSEPH / EDGAR BRAULT",,45.473804,-75.519539,,,0
EJ100,1766,"ST JOSEPH / ST PIERRE",,45.473274,-75.520851,,,0
EJ110,8540,"ST JOSEPH / BELCOURT",,45.472145,-75.522362,,,0
EJ120,8543,"ST JOSEPH / BELCOURT",,45.471748,-75.52359,,,0
EJ130,7801,"ST JOSEPH / ST JEAN",,45.470753,-75.525764,,,0
EJ140,7798,"ST JOSEPH / ST JEAN",,45.470314,-75.526207,,,0
EJ150,1767,"ST JOSEPH / DUSSERE",,45.469837,-75.527306,,,0
EJ160,7802,"ST JOSEPH / DUSSERE",,45.469913,-75.527618,,,0
EJ170,7803,"ST JOSEPH / COUSINEAU",,45.469242,-75.52903,,,0
EJ180,5740,"ST JOSEPH / ORLÉANS",,45.468681,-75.529762,,,0
EJ190,1770,"ST JOSEPH / ORLEANS",,45.468491,-75.530777,,,0
EJ200,7795,"ST JOSEPH / BOYER",,45.467373,-75.532784,,,0
EJ210,8909,"ST JOSEPH / BOYER",,45.467121,-75.533821,,,0
EJ220,5833,"ST JOSEPH / GREY NUNS",,45.46603,-75.535759,,,0
EJ230,8116,"ST JOSEPH / GREY NUNS",,45.465744,-75.536812,,,0
EJ240,7794,"ST JOSEPH / NOTRE DAME",,45.465054,-75.538422,,,0
EJ250,8101,"ST JOSEPH / NOTRE DAME",,45.465015,-75.537987,,,0
EJ260,2477,"MEADOWGLEN / BOYER",,45.452118,-75.524872,,,0
EJ265,7753,"MEADOWGLEN / BOYER",,45.452175,-75.524384,,,0
EJ270,7754,"MEADOWGLEN / TEAKDALE",,45.451435,-75.526062,,,0
EJ275,7752,"MEADOWGLEN / ROBINWOOD",,45.451038,-75.526115,,,0
EJ280,7755,"MEADOWGLEN / ASPENVIEW",,45.449772,-75.527481,,,0
EJ284,1401,"MEADOWGLEN / PAGÉ",,45.449097,-75.529602,,,0
EJ285,7751,"MEADOWGLEN / THORNCREST",,45.449364,-75.528053,,,0
EJ286,1399,"MEADOWGLEN / LORANGER",,45.4491,-75.528976,,,0
EJ287,7750,"MEADOWGLEN / SABLEWOOD",,45.447971,-75.531525,,,0
EJ290,7756,"MEADOWGLEN / SUMMERFIELDS #2",,45.447392,-75.533112,,,0
EJ292,6609,"MEADOWGLEN / SUMMERFIELDS # 1",,45.448357,-75.531364,,,0
EJ295,2479,"MEADOWGLEN / ORLÉANS",,45.447002,-75.533951,,,0
EJ461,1194,"INNES / PAGE",,45.44659,-75.527763,,,0
EJ470,8129,"INNES / BOYER PATHWAY",,45.448578,-75.522362,,,0
EJ481,1219,"INNES / BOYER PATHWAY",,45.448696,-75.5224,,,0
EJ490,7764,"INNES / VISENEAU",,45.451248,-75.515953,,,0
EJ500,8955,"INNES / VISENEAU",,45.45137,-75.515312,,,0
EJ503,589,"INNES / BELCOURT",,45.453201,-75.510902,,,0
EJ505,1751,"INNES / BELCOURT",,45.453003,-75.511856,,,0
EJ510,7763,"INNES / AD. 3927",,45.454742,-75.507004,,,0
EJ515,864,"INNES / AD. 3927",,45.454659,-75.507568,,,0
EJ630,8141,"BELCOURT / CARRIÈRE",,45.467312,-75.519173,,,0
EJ640,7776,"BELCOURT / CARRIÈRE",,45.467594,-75.519569,,,0
EJ650,7775,"BELCOURT / LEBLANC",,45.46838,-75.519958,,,0
EJ660,7772,"BELCOURT / BARSONA",,45.468983,-75.520103,,,0
EJ670,7774,"BELCOURT / NOTRE DAME",,45.470787,-75.521637,,,0
EJ680,7773,"BELCOURT / NOTRE DAME",,45.470505,-75.521103,,,0
EJ690,8133,"BELCOURT / ST JOSEPH",,45.471542,-75.522453,,,0
EJ695,7797,"ORLÉANS / LUMBERMAN",,45.470917,-75.532295,,,0
EJ700,1753,"ORLÉANS / LUMBERMAN",,45.471134,-75.532677,,,0
EJ705,1752,"ORLÉANS / ST JOSEPH",,45.469002,-75.530403,,,0
EJ710,7796,"ORLÉANS / ST JOSEPH",,45.469238,-75.53093,,,0
EJ712,1233,"ORLÉANS / ST JOSEPH",,45.46806,-75.529915,,,0
EJ715,7742,"ORLÉANS / NOTRE DAME",,45.467941,-75.52951,,,0
EJ720,1755,"ORLÉANS / NOTRE DAME",,45.467308,-75.529419,,,0
EJ722,7741,"ORLÉANS / CARRIÈRE",,45.465111,-75.527893,,,0
EJ723,542,"CARRIÈRE / É.S. GARNEAU",,45.465858,-75.526108,,,0
EJ724,3655,"CARRIÈRE  / ORLEANS",,45.465652,-75.527031,,,0
EJ725,7740,"ORLÉANS / JEANNE D'ARC",,45.462605,-75.526535,,,0
EJ728,7743,"ORLÉANS / CARRIERE",,45.464939,-75.528107,,,0
EJ729,6311,"ORLÉANS / BOYER",,45.454952,-75.527267,,,0
EJ730,7744,"ORLÉANS / JEANNE D'ARC",,45.461414,-75.52623,,,0
EJ731,6312,"ORLÉANS / BOYER",,45.455597,-75.525772,,,0
EJ733,7745,"ORLÉANS / BEAUSEJOUR",,45.458542,-75.524956,,,0
EJ734,7746,"ORLÉANS / GLOUCESTER LIBRARY",,45.456635,-75.524681,,,0
EJ735,7739,"ORLÉANS / BEAUSÉJOUR",,45.459064,-75.524918,,,0
EJ736,7738,"ORLÉANS / GLOUCESTER LIBRARY",,45.456566,-75.524414,,,0
EJ737,1754,"ORLÉANS / BOYER",,45.455418,-75.525658,,,0
EJ738,7737,"ORLÉANS / BOYER",,45.454659,-75.527466,,,0
EJ739,4076,"ORLÉANS / BEAUSÉJOUR",,45.453598,-75.531723,,,0
EJ740,5847,"ORLÉANS / MAPLE RUN",,45.453724,-75.530563,,,0
EJ741,7748,"ORLÉANS / OAK MEADOWS",,45.451786,-75.534531,,,0
EJ742,7736,"ORLÉANS / OAK MEADOWS",,45.451782,-75.534248,,,0
EJ743,326,"ORLÉANS / FOREST VALLEY",,45.449612,-75.53521,,,0
EJ744,7749,"ORLÉANS / FOREST VALLEY",,45.449642,-75.535423,,,0
EJ745,2456,"ORLÉANS / MEADOWGLEN",,45.447292,-75.534309,,,0
EJ747,2452,"ORLÉANS / INNES",,45.44479,-75.53286,,,0
EJ748,1757,"VISENEAU / SIMARD",,45.453735,-75.522736,,,0
EJ749,7759,"VISENEAU / VIGNEAULT",,45.453686,-75.522903,,,0
EJ750,1756,"VISENEAU / BARRINGTON",,45.455357,-75.519463,,,0
EJ751,6616,"ORLÉANS / MEADOWGLEN",,45.446472,-75.534073,,,0
EJ755,7757,"VISENEAU / DUCLOS",,45.455444,-75.518524,,,0
EJ760,7758,"VISENEAU / BROMONT",,45.454762,-75.516541,,,0
EJ765,1809,"VISENEAU / D'AMOUR",,45.453922,-75.516235,,,0
EJ770,1710,"VISENEAU / MARKWELL",,45.452755,-75.51548,,,0
EJ774,7787,"JEANNE D'ARC / AD. 5810",,45.461853,-75.535316,,,0
EJ775,7761,"VISENEAU / INNES",,45.452076,-75.515831,,,0
EJ776,1759,"JEANNE D'ARC / AD. 5875",,45.461647,-75.535477,,,0
EJ777,7786,"JEANNE D'ARC / HUNTER'S RUN",,45.461533,-75.531548,,,0
EJ778,7788,"JEANNE D'ARC / HUNTERS RUN",,45.461308,-75.531517,,,0
EJ779,7785,"JEANNE D'ARC / BOYER",,45.461639,-75.529526,,,0
EJ780,7789,"JEANNE D'ARC / BOYER",,45.461494,-75.529198,,,0
EJ785,7784,"JEANNE D'ARC / ORLÉANS",,45.46199,-75.527107,,,0
EJ790,7790,"JEANNE D'ARC / ORLÉANS",,45.462048,-75.525673,,,0
EJ795,7783,"JEANNE D'ARC / MONTCERF",,45.462379,-75.524399,,,0
EJ800,7791,"JEANNE D'ARC / CEDAR MILLS",,45.462021,-75.522346,,,0
EJ805,1760,"JEANNE D'ARC / BEAUSÉJOUR",,45.460583,-75.520401,,,0
EJ808,7782,"JEANNE D'ARC / NATALIE",,45.458717,-75.518173,,,0
EJ810,1762,"JEANNE D'ARC / BEAUSÉJOUR",,45.460014,-75.520119,,,0
EJ815,7781,"JEANNE D'ARC / BELCOURT",,45.458836,-75.514091,,,0
EJ816,7792,"JEANNE D'ARC / NATALIE",,45.45842,-75.517906,,,0
EJ817,1761,"JEANNE D'ARC / DES ÉPINETTES",,45.459415,-75.51049,,,0
EJ820,7793,"JEANNE D'ARC / BELCOURT",,45.458702,-75.513977,,,0
EJ822,2908,"DES ÉPINETTES / SUNVIEW",,45.459629,-75.509834,,,0
EJ825,7780,"SUNVIEW / DES PERDRIX",,45.46096,-75.512253,,,0
EJ827,7779,"SUNVIEW / AD. 1672",,45.463158,-75.51432,,,0
EJ830,1782,"SUNVIEW / DES PERDRIX",,45.461006,-75.512062,,,0
EJ832,7769,"SUNVIEW / DES PERDRIX",,45.462334,-75.513573,,,0
EJ835,7778,"SUNVIEW / DES GRIVES",,45.464947,-75.515114,,,0
EJ840,1763,"SUNVIEW / BURNING TREE",,45.464745,-75.5149,,,0
EJ845,7777,"SUNVIEW / DES GRIVES",,45.466938,-75.514389,,,0
EJ847,1764,"SUNVIEW / LARKHAVEN",,45.467091,-75.517616,,,0
EJ850,7770,"SUNVIEW / DES GRIVES",,45.467171,-75.514473,,,0
EJ852,7771,"SUNVIEW / LARKHAVEN",,45.467243,-75.517632,,,0
EJ865,1973,"JEANNE D'ARC / DES ÉPINETTES",,45.459156,-75.509521,,,0
EJ880,7766,"JEANNE D'ARC / SAPINIER",,45.457306,-75.505768,,,0
EJ885,7765,"JEANNE D'ARC / SAPINIER",,45.457993,-75.505959,,,0
EJ890,7767,"INNES / JEANNE D'ARC",,45.455601,-75.505196,,,0
EJ891,6939,"JEANNE D'ARC / INNES",,45.455967,-75.505035,,,0
EJ895,1974,"JEANNE D'ARC / INNES",,45.45612,-75.504883,,,0
EK010,8156,"HIAWATHA / AD. 879",,45.482841,-75.546394,,,0
EK020,7927,"HIAWATHA / ST LOUIS",,45.480675,-75.546921,,,0
EK025,7928,"ST LOUIS / BUCKSKIN",,45.480675,-75.543427,,,0
EK030,7926,"HIAWATHA / ST LOUIS",,45.481136,-75.546936,,,0
EK035,7925,"ST LOUIS / BUCKSKIN",,45.480816,-75.543221,,,0
EK040,7924,"ORLÉANS / ST LOUIS",,45.481197,-75.540504,,,0
EK045,1534,"ORLÉANS / JEANNE D'ARC",,45.479584,-75.538139,,,0
EK046,790,"ORLEANS / CAIRINE WILSON H.S.",,45.481575,-75.541298,,,0
EK048,6943,"ORLEANS / SUGAR CREEK",,45.475582,-75.535019,,,0
EK050,7929,"ORLÉANS / ST LOUIS",,45.481045,-75.540489,,,0
EK091,6960,"FORTUNE / ORLEANS",,45.475803,-75.535912,,,0
EK095,7941,"FORTUNE / ORLÉANS",,45.475716,-75.535782,,,0
EK100,8178,"FORTUNE / PRIORY",,45.474823,-75.537781,,,0
EK110,7940,"FORTUNE / ST JOVITE",,45.474079,-75.53833,,,0
EK115,7934,"FORTUNE / ST THÉRÈSE",,45.473904,-75.538696,,,0
EK120,8171,"FORTUNE / ST DUNSTANS",,45.472919,-75.539322,,,0
EK130,7935,"FORTUNE / STE THÉRÈSE",,45.472118,-75.540627,,,0
EK140,7939,"FORTUNE / ST JÉROME",,45.471634,-75.541687,,,0
EK150,7936,"FORTUNE / ST JÉROME",,45.471355,-75.542892,,,0
EK160,8179,"FORTUNE / STE AGATHE",,45.471481,-75.545036,,,0
EK170,7938,"FORTUNE / ST AGATHE",,45.471394,-75.545235,,,0
EK180,8170,"FORTUNE / ST MORITZ",,45.472145,-75.545769,,,0
EK190,7937,"FORTUNE / JEANNE D'ARC",,45.472603,-75.546837,,,0
EK210,8158,"VINEYARD / SAUTERNE",,45.471424,-75.54879,,,0
EK220,8157,"VINEYARD / SAUTERNE",,45.471592,-75.548668,,,0
EK230,2663,"VINEYARD / SAUTERNE",,45.469086,-75.548996,,,0
EK240,2665,"VINEYARD / SAUTERNE",,45.469048,-75.548637,,,0
EK250,2664,"VINEYARD / BEAUJOLAIS",,45.468739,-75.550507,,,0
EK260,2668,"VINEYARD / BURGUNDY",,45.468563,-75.550125,,,0
EK270,8160,"VINEYARD / BEAUJOLAIS",,45.468647,-75.553642,,,0
EK280,2666,"VINEYARD / BURGUNDY",,45.468468,-75.553604,,,0
EK290,2694,"VINEYARD / BORDEAU",,45.470104,-75.554626,,,0
EK295,2670,"VINEYARD / CHABLIS",,45.471905,-75.55484,,,0
EK300,2667,"VINEYARD / BORDEAU",,45.470341,-75.55497,,,0
EK305,2669,"VINEYARD / CHABLIS",,45.47197,-75.555061,,,0
EK310,2671,"VINEYARD / VOYAGEUR",,45.472713,-75.554588,,,0
EK320,2684,"VOYAGEUR / VINEYARD",,45.47327,-75.554741,,,0
EK330,2680,"VOYAGEUR / BATEAU",,45.473736,-75.556267,,,0
EK340,2672,"VOYAGEUR / CHALEUR",,45.47393,-75.556252,,,0
EK350,2681,"VOYAGEUR / EXPLORER",,45.47562,-75.557838,,,0
EK360,2673,"VOYAGEUR / EXPLORER",,45.475582,-75.557594,,,0
EK370,2674,"VOYAGEUR / FAIRWINDS",,45.477322,-75.55809,,,0
EK380,2682,"VOYAGEUR / FAIRWINDS",,45.477448,-75.558228,,,0
EK390,2683,"VOYAGEUR / AD. 6140",,45.478645,-75.556038,,,0
EK400,2675,"VOYAGEUR / AD. 6139",,45.478527,-75.555832,,,0
EK410,2676,"VOYAGEUR / ACADIAN",,45.478081,-75.551941,,,0
EK420,8155,"VOYAGEUR / ACADIAN",,45.477943,-75.551605,,,0
EK430,2677,"VOYAGEUR / RAFTSMAN",,45.476982,-75.550819,,,0
EK440,2866,"VOYAGEUR / RAVINE",,45.476925,-75.550385,,,0
EK450,2678,"VOYAGEUR / VOYAGEUR",,45.475948,-75.549789,,,0
EK460,2685,"VOYAGEUR / VOYAGEUR",,45.475983,-75.549454,,,0
EK470,2679,"VOYAGEUR / PADDLER",,45.475945,-75.548492,,,0
EK480,2686,"VOYAGEUR / JEANNE D'ARC",,45.475815,-75.547859,,,0
EK490,8154,"JEANNE D'ARC / ORLÉANS",,45.478748,-75.538269,,,0
EK510,7930,"JEANNE D'ARC / PADDLER",,45.477909,-75.543434,,,0
EK520,8164,"JEANNE D'ARC / VORLAGE",,45.477875,-75.542549,,,0
EK530,7960,"JEANNE D'ARC / VORLAGE",,45.475784,-75.547241,,,0
EK540,8161,"JEANNE D'ARC / VOYAGEUR",,45.475471,-75.547775,,,0
EK550,8162,"JEANNE D'ARC / VINEYARD",,45.471992,-75.547897,,,0
EK560,8163,"JEANNE D'ARC / FORTUNE",,45.47216,-75.547791,,,0
EK570,8122,"JEANNE D'ARC / GREY NUNS",,45.466476,-75.542885,,,0
EK580,8124,"JEANNE D'ARC / YOUVILLE",,45.466278,-75.542824,,,0
EK590,1831,"JEANNE D'ARC / ST JOSEPH",,45.464714,-75.540771,,,0
EK600,8123,"JEANNE D'ARC / ST JOSEPH",,45.464649,-75.540375,,,0
